id,name,state_id,state_code,state_name,country_id,country_code,country_name,latitude,longitude,wikiDataId
40250,Brains,4802,PDL,Pays-de-la-Loire,75,FR,France,47.16850000,-1.72290000,Q1135654
120179,Lauderdale County,1456,AL,Alabama,233,US,United States,34.90137000,-87.65400000,Q261672
64846,Naivasha,203,31,Nakuru,113,KE,Kenya,-0.71383000,36.43261000,Q1007647
85935,Branice,1622,OP,Opole Voivodeship,176,PL,Poland,50.05108000,17.79399000,Q735041
135052,Shahrestān-e Sīb va Sūrān,3931,11,Sistan and Baluchestan,103,IR,Iran,27.33333000,61.91667000,Q1286233
43118,Lavit,4799,OCC,Occitanie,75,FR,France,43.95674000,0.92010000,Q1361257
89030,Belver,2229,04,Bragança,177,PT,Portugal,41.24696000,-7.27594000,Q816270
128170,Venice,1436,FL,Florida,233,US,United States,27.09978000,-82.45426000,Q57325
837,Departamento de Bermejo,3640,H,Chaco,11,AR,Argentina,-27.00000000,-58.66667000,Q792464
31918,Abrucena,1193,AN,Andalusia,207,ES,Spain,37.13226000,-2.79711000,Q24011289
85203,Tudela,1344,BAN,Bataan,174,PH,Philippines,10.63830000,124.47287000,Q316564
22856,Okres Příbram,4554,20,Středočeský kraj,58,CZ,Czech Republic,49.66667000,14.16667000,Q852457
96889,Voluntari,4725,IF,Ilfov County,181,RO,Romania,44.49002000,26.17338000,Q1195081
7170,Seaview Downs,3904,SA,South Australia,14,AU,Australia,-35.03698000,138.53796000,Q7442000
118074,Harrisville,1426,MI,Michigan,233,US,United States,44.65640000,-83.29469000,Q2745108
48437,Beadnell,2336,ENG,England,232,GB,United Kingdom,55.55670000,-1.63250000,Q2689370
126644,South Coventry,1435,CT,Connecticut,233,US,United States,41.77010000,-72.30508000,Q14715116
112155,Belvidere,1425,IL,Illinois,233,US,United States,42.26391000,-88.84427000,Q185609
60015,San Giustino,1683,55,Umbria,107,IT,Italy,43.54660000,12.17528000,Q18453415
121638,Memphis,1436,FL,Florida,233,US,United States,27.53587000,-82.56121000,Q2081132
110207,Oster,4692,74,Chernihiv Oblast,230,UA,Ukraine,50.95060000,30.88229000,Q1019815
106479,Chom Thong,3491,50,Chiang Mai,219,TH,Thailand,18.41742000,98.67428000,Q13025193
145729,Santiago,1326,AGS,Agusan del Sur,174,PH,Philippines,14.90361111,120.51138889,Q31512351
139665,Lurago Marinone,1705,25,Lombardy,107,IT,Italy,45.70482000,8.98330000,Q18429882
111739,Baker,1446,MT,Montana,233,US,United States,46.36695000,-104.28466000,Q955228
52249,Gunjur,2667,W,West Coast Division,80,GM,Gambia The,13.20194000,-16.73389000,Q687816
124822,Rahway,1417,NJ,New Jersey,233,US,United States,40.60816000,-74.27765000,Q1003082
32447,Arenas de San Pedro,1200,LE,Léon,207,ES,Spain,40.21041000,-5.08694000,Q641669
148520,Pedro Aguirre Cerda,2824,RM,Región Metropolitana de Santiago,44,CL,Chile,-33.46666667,-70.63333333,Q51084
17437,Ballwil,1663,LU,Lucerne,214,CH,Switzerland,47.15371000,8.32233000,Q7096
35013,Leciñena,1177,AR,Aragon,207,ES,Spain,41.79868000,-0.61174000,Q960585
103687,Sigtuna Kommun,1551,AB,Stockholm County,213,SE,Sweden,59.63960000,17.93946000,Q216915
3004,Politischer Bezirk Gänserndorf,2065,3,Lower Austria,15,AT,Austria,48.39340000,16.73892000,Q694442
47119,Surbourg,4820,GES,Grand-Est,75,FR,France,48.91009000,7.84716000,Q21498
122232,Moretown,1409,VT,Vermont,233,US,United States,44.25089000,-72.76095000,Q3475608
51091,Roade,2336,ENG,England,232,GB,United Kingdom,52.15824000,-0.89745000,Q2981589
130141,San Carlos,2034,H,Cojedes,239,VE,Venezuela,9.66124000,-68.58268000,Q995718
135982,Berchidda,1715,88,Sardinia,107,IT,Italy,40.78476000,9.16510000,Q18491454
128054,Upson County,1455,GA,Georgia,233,US,United States,32.88127000,-84.29934000,Q498377
55026,Đurmanec,729,02,Krapina-Zagorje County,55,HR,Croatia,46.19708000,15.83786000,Q318961
91939,Comuna Grădiştea,4732,CL,Călărași County,181,RO,Romania,44.21945000,27.16160000,Q2537520
55449,Gomba,1059,PE,Pest County,99,HU,Hungary,47.37095000,19.53057000,Q1011712
101700,Svetlaya,1833,PRI,Primorsky Krai,182,RU,Russia,46.54217000,138.32973000,Q1853228
27464,Mihla,3015,TH,Thuringia,82,DE,Germany,51.07617000,10.33175000,Q579812
116254,Evansville,1441,WI,Wisconsin,233,US,United States,42.78028000,-89.29928000,Q1569954
81393,Baganga,1340,11,Davao Region,174,PH,Philippines,7.57389000,126.56000000,Q314522
141773,Upper Sandusky,4851,OH,Ohio,233,US,United States,40.82728000,-83.28131000,Q1913338
97389,Sremski Karlovci,3733,VO,Vojvodina,196,RS,Serbia,45.20285000,19.93373000,Q784960
29992,Walsdorf,3009,BY,Bavaria,82,DE,Germany,49.86667000,10.78333000,Q552268
134240,Taranagar,4014,RJ,Rajasthan,101,IN,India,28.66860000,75.03207000,Q2248494
146218,Teghalimet,4902,22,Sidi Bel Abbès,4,DZ,Algeria,34.88283300,-0.56000230,Q3517138
77128,Uruobo-Okija,315,AN,Anambra,161,NG,Nigeria,5.90016000,6.84312000,Q3510262
33372,Casas de Ves,1205,CM,Castilla La Mancha,207,ES,Spain,39.25000000,-1.33333000,Q1606156
18197,Mühlethurnen,1645,BE,Bern,214,CH,Switzerland,46.81345000,7.50881000,Q22643741
104522,Oravský Podzámok,4359,ZI,Žilina Region,200,SK,Slovakia,49.25939000,19.35690000,Q1091685
49508,Exton,2336,ENG,England,232,GB,United Kingdom,52.69106000,-0.63463000,Q3470604
67095,Brikcha,3324,01,Tanger-Tétouan-Al Hoceïma,149,MA,Morocco,34.96732000,-5.57295000,Q2925553
25137,Falkenhain,3021,SN,Saxony,82,DE,Germany,51.39888000,12.87083000,Q631101
74540,Santa Ana Mayorazgo,3450,MEX,México,142,MX,Mexico,19.42951000,-99.51270000,Q3890602
120755,Longtown,1421,OK,Oklahoma,233,US,United States,35.24538000,-95.51276000,Q2242974
34709,Huélamo,1205,CM,Castilla La Mancha,207,ES,Spain,40.27658000,-1.80957000,Q943437
104038,Örkelljunga Kommun,1541,M,Skåne County,213,SE,Sweden,56.32464000,13.33941000,Q297936
39559,Athée-sur-Cher,4818,CVL,Centre-Val de Loire,75,FR,France,47.32023000,0.91659000,Q244289
13733,Paulo Frontin,2022,PR,Paraná,31,BR,Brazil,-26.04279000,-50.74770000,Q2007799
40435,Béville-le-Comte,4818,CVL,Centre-Val de Loire,75,FR,France,48.43558000,1.71305000,Q737451
46263,Saint-Martin-Lalande,4799,OCC,Occitanie,75,FR,France,43.29928000,2.02004000,Q875983
92821,Comuna Râmetea,4724,AB,Alba,181,RO,Romania,46.43815000,23.56579000,Q16467066
122571,Nashua,1404,NH,New Hampshire,233,US,United States,42.76537000,-71.46757000,Q48274
16279,Carleton,873,QC,Quebec,39,CA,Canada,48.09838000,-66.10036000,Q142391
27927,Nordstemmen,3008,NI,Lower Saxony,82,DE,Germany,52.16196000,9.78350000,Q555657
140022,Mediis,1756,36,Friuli–Venezia Giulia,107,IT,Italy,46.40336000,12.82341000,Q3853796
75665,Tlamaya Grande,3476,PUE,Puebla,142,MX,Mexico,20.14689000,-97.80313000,Q20232568
35255,Manquillos,1200,LE,Léon,207,ES,Spain,42.20518000,-4.56841000,Q783867
6218,McKellar,3907,ACT,Australian Capital Territory,14,AU,Australia,-35.21752000,149.07704000,Q927298
5714,Jackass Flat,3903,VIC,Victoria,14,AU,Australia,-36.71589000,144.28597000,Q6116079
132538,Kodaikanal,4035,TN,Tamil Nadu,101,IN,India,10.23925000,77.48932000,Q253851
139882,Marina di Casal Velino,1669,72,Campania,107,IT,Italy,40.17665000,15.12218000,Q16965
98538,Gornyatskiy,1837,ROS,Rostov Oblast,182,RU,Russia,48.29649000,40.92404000,Q37804030
45335,Puy-Guillaume,4798,ARA,Auvergne-Rhône-Alpes,75,FR,France,45.96036000,3.47405000,Q751118
114731,Covelo,1416,CA,California,233,US,United States,39.79327000,-123.24922000,Q2196301
5927,Kurraba Point,3909,NSW,New South Wales,14,AU,Australia,-33.84235000,151.22256000,Q6446475
68503,Bajos del Ejido,3459,GRO,Guerrero,142,MX,Mexico,16.96086000,-99.97169000,Q20205553
36260,Polinyà,1203,CT,Catalonia,207,ES,Spain,41.55000000,2.15000000,Q13925
50702,Newbridge,2335,SCT,Scotland,232,GB,United Kingdom,55.93333000,-3.40000000,Q7017057
49178,Crossmaglen,2337,NYK,Northern Ireland,232,GB,United Kingdom,54.08333000,-6.60000000,Q1838543
142226,Buena Vista,4857,JAL,Jalisco,142,MX,Mexico,20.77722000,-102.75778000,Q20241344
116504,Fife,1462,WA,Washington,233,US,United States,47.23927000,-122.35707000,Q1510211
39142,Lomaiviti Province,1932,E,Eastern Division,73,FJ,Fiji Islands,-17.66667000,178.80000000,Q2144922
53559,Municipio de Cunén,3657,QC,Quiché Department,90,GT,Guatemala,15.36312000,-91.01889000,Q2403612
14958,São José de Ubá,1997,RJ,Rio de Janeiro,31,BR,Brazil,-21.37831000,-41.95256000,Q1006367
90628,Cerna,4727,TL,Tulcea County,181,RO,Romania,45.08333000,28.31667000,Q12169866
59234,Quassolo,1702,21,Piedmont,107,IT,Italy,45.52294000,7.83305000,Q3241015
12255,Inocência,2010,MS,Mato Grosso do Sul,31,BR,Brazil,-19.67150000,-52.04393000,Q986245
73041,Quiriego,3468,SON,Sonora,142,MX,Mexico,27.51987000,-109.25233000,Q3311475
89362,Oliveira,2244,03,Braga,177,PT,Portugal,41.47819000,-8.46965000,Q49358935
39260,Agnetz,4828,HDF,Hauts-de-France,75,FR,France,49.38118000,2.38621000,Q34794294
68252,Amecameca,3450,MEX,México,142,MX,Mexico,19.12384000,-98.76649000,Q4064121
94057,Drăgăneşti,4729,PH,Prahova County,181,RO,Romania,44.81667000,26.30000000,Q12102361
46702,Sainte-Lizaigne,4818,CVL,Centre-Val de Loire,75,FR,France,47.00695000,2.02266000,Q1136652
76784,Awgu,289,EN,Enugu,161,NG,Nigeria,6.07278000,7.47739000,Q3509036
123696,Ozark,1456,AL,Alabama,233,US,United States,31.45906000,-85.64049000,Q79212
76832,Dankalwa,297,YO,Yobe,161,NG,Nigeria,11.74449000,12.18545000,Q1023722
52374,Youkounkoun,2676,B,Boké Region,92,GN,Guinea,12.53110000,-13.12240000,Q623139
139857,Marene,1702,21,Piedmont,107,IT,Italy,44.66113000,7.73436000,Q3846723
51269,Sherburn in Elmet,2336,ENG,England,232,GB,United Kingdom,53.79519000,-1.24660000,Q761259
57052,Watampone,1795,SN,Sulawesi Selatan,102,ID,Indonesia,-4.53860000,120.32790000,Q984451
69565,Cuarta Brigada,3469,GUA,Guanajuato,142,MX,Mexico,20.62194000,-101.28001000,Q20205980
12405,Itapecerica da Serra,2021,SP,São Paulo,31,BR,Brazil,-23.71694000,-46.84917000,Q926662
121654,Mendon,1409,VT,Vermont,233,US,United States,43.65198000,-72.92780000,Q265798
134119,Tarana,4039,MP,Madhya Pradesh,101,IN,India,23.33383000,76.04253000,Q2248410
125733,Salem,1429,WV,West Virginia,233,US,United States,39.28287000,-80.55899000,Q1125440
25235,Freckenfeld,3019,RP,Rhineland-Palatinate,82,DE,Germany,49.06500000,8.11389000,Q567261
30177,Wermsdorf,3021,SN,Saxony,82,DE,Germany,51.28333000,12.95000000,Q16067
14590,Santana do Paraíso,1998,MG,Minas Gerais,31,BR,Brazil,-19.38010000,-42.54068000,Q929590
109071,Geita,1481,27,Geita,218,TZ,Tanzania,-2.87250000,32.23250000,Q4622385
115390,Dollar Point,1416,CA,California,233,US,United States,39.18796000,-120.09991000,Q3301222
13763,Pedras Grandes,2014,SC,Santa Catarina,31,BR,Brazil,-28.48270000,-49.22027000,Q1785825
80964,Santiago,3700,ICA,Ica,173,PE,Peru,-14.18469000,-75.71124000,Q1944245
111910,Battlement Mesa,1450,CO,Colorado,233,US,United States,39.44137000,-108.02507000,Q1906807
45966,Saint-Geniès-de-Fontedit,4799,OCC,Occitanie,75,FR,France,43.46667000,3.18333000,Q275399
144089,Suyan,1270,BUK,Bukidnon,174,PH,Philippines,6.06027778,125.38527778,Q31539188
57965,Bharthana,4022,UP,Uttar Pradesh,101,IN,India,26.75231000,79.22180000,Q662285
97144,Alibunar,3733,VO,Vojvodina,196,RS,Serbia,45.08083000,20.96583000,Q648863
90397,Buhuşi,4744,BC,Bacău County,181,RO,Romania,46.71667000,26.70000000,Q16898108
31688,Raasiku,3567,37,Harju County,69,EE,Estonia,59.36639000,25.18306000,Q2097814
114892,Cuero,1407,TX,Texas,233,US,United States,29.09387000,-97.28916000,Q982482
126491,Slater-Marietta,1443,SC,South Carolina,233,US,United States,35.03472000,-82.49265000,Q2059282
76330,Zentlalpan,3450,MEX,México,142,MX,Mexico,19.15003000,-98.78494000,Q3890546
93320,Comuna Valea Râmnicului,4756,BZ,Buzău County,181,RO,Romania,45.36174000,27.04675000,Q2716451
143687,Sé,4859,09,Guarda,177,PT,Portugal,40.53861111,-7.26916667,Q45915
7849,Wickham,3909,NSW,New South Wales,14,AU,Australia,-32.91923000,151.75693000,Q7998371
147983,Talalora,1322,08,Eastern Visayas,174,PH,Philippines,11.51666667,124.85000000,Q816519
13279,Muribeca,2003,SE,Sergipe,31,BR,Brazil,-10.38925000,-36.97628000,Q1637446
52770,Korydallós,2122,I,Attica Region,85,GR,Greece,37.98468000,23.64711000,Q659042
142286,Coamostita,4857,JAL,Jalisco,142,MX,Mexico,21.92833000,-103.99083000,Q20241666
20557,Atrato,2876,CHO,Chocó,48,CO,Colombia,5.57362000,-76.64063000,Q1576206
61374,Torre di Mosto,1753,34,Veneto,107,IT,Italy,45.68629000,12.70027000,Q18493670
100810,Pregradnoye,1868,STA,Stavropol Krai,182,RU,Russia,45.82183000,41.74692000,Q37958842
38574,Águilas,1176,MC,Murcia,207,ES,Spain,37.40630000,-1.58289000,Q249941
81422,Bairan,1344,BAN,Bataan,174,PH,Philippines,10.19718000,123.72710000,Q31476767
48421,Basingstoke,2336,ENG,England,232,GB,United Kingdom,51.26249000,-1.08708000,Q810196
46591,Saint-Urbain,4807,BRE,Bretagne,75,FR,France,48.40000000,-4.23333000,Q1813
75157,Tacicuaro,3474,MIC,Michoacán,142,MX,Mexico,19.66980000,-101.35967000,Q3889100
75802,Tultepec,3450,MEX,México,142,MX,Mexico,19.68500000,-99.12806000,Q1818778
56556,Kabupaten Ngada,1818,NT,Nusa Tenggara Timur,102,ID,Indonesia,-8.66667000,121.00000000,Q14145
111925,Bay County,1426,MI,Michigan,233,US,United States,43.72137000,-83.94184000,Q74704
48842,Canary Wharf,2336,ENG,England,232,GB,United Kingdom,51.50519000,-0.02085000,Q124377
105846,Bayandayevskiy Rayon,1912,UA-40,Sevastopol,182,RU,Russia,53.08333000,105.58333000,Q1651119
73337,San Antonio Juárez,3476,PUE,Puebla,142,MX,Mexico,18.79379000,-97.98964000,Q20231547
143480,Mem Martins,4859,09,Guarda,177,PT,Portugal,38.79443000,-9.34284000,Q32580
63611,Itoigawa Shi,841,15,Niigata Prefecture,109,JP,Japan,36.96626000,137.89402000,Q857208
37849,Vallecillo,1200,LE,Léon,207,ES,Spain,42.35604000,-5.21088000,Q1650257
97515,Ageyevo,1895,TUL,Tula Oblast,182,RU,Russia,54.15883000,36.46927000,Q1987320
136922,Carpinone,1695,67,Molise,107,IT,Italy,41.59003000,14.32436000,Q3660665
140972,Orsara di Puglia,1688,75,Apulia,107,IT,Italy,41.28163000,15.26765000,Q3885522
21380,San Luis de Gaceno,2903,BOY,Boyacá,48,CO,Colombia,4.82052000,-73.16851000,Q1577001
81923,Butig,1316,14,Autonomous Region in Muslim Mindanao,174,PH,Philippines,7.72444000,124.30083000,Q273796
44491,Mézy-sur-Seine,4796,IDF,Île-de-France,75,FR,France,49.00000000,1.88333000,Q35736642
110063,Murovani Kurylivtsi,4669,05,Vinnytsia Oblast,230,UA,Ukraine,48.72348000,27.51892000,Q1999815
101523,Spas-Demenskiy Rayon,1844,KLU,Kaluga Oblast,182,RU,Russia,54.41667000,34.00000000,Q1655564
99338,Krasnoufimsk,1894,SVE,Sverdlovsk,182,RU,Russia,56.60585000,57.76686000,Q155785
25573,Grainet,3009,BY,Bavaria,82,DE,Germany,48.80000000,13.65000000,Q32040017
47819,Villevaudé,4796,IDF,Île-de-France,75,FR,France,48.91751000,2.65228000,Q582
60829,Sforzacosta,1670,57,Marche,107,IT,Italy,43.25676000,13.42284000,Q18497882
134664,Karaj,3929,30,Alborz Province,103,IR,Iran,35.83266000,50.99155000,Q36529
148809,Al Bustan,2851,03,Al Madinah,194,SA,Saudi Arabia,23.27830000,39.24280000,Q4703635
17091,Sutton,873,QC,Quebec,39,CA,Canada,45.10008000,-72.61582000,Q142521
117092,Garner,1447,NC,North Carolina,233,US,United States,35.71126000,-78.61417000,Q2028273
38458,Zalamea de la Serena,1190,EX,Extremadura,207,ES,Spain,38.65131000,-5.66063000,Q1613344
125317,Rockport,1433,MA,Massachusetts,233,US,United States,42.65565000,-70.62032000,Q2079395
34560,Gálvez,1205,CM,Castilla La Mancha,207,ES,Spain,39.70208000,-4.27239000,Q1757664
44000,Menetou-Salon,4818,CVL,Centre-Val de Loire,75,FR,France,47.23172000,2.48715000,Q829724
104167,Litija,4347,060,Litija Municipality,201,SI,Slovenia,46.05861000,14.82250000,Q2115226
32943,Bonansa,1177,AR,Aragon,207,ES,Spain,42.42691000,0.66692000,Q24013403
126501,Slidell,1457,LA,Louisiana,233,US,United States,30.27519000,-89.78117000,Q988156
97593,Alkhan-Kala,1893,CE,Chechen Republic,182,RU,Russia,43.25861000,45.53917000,Q2291815
56502,Kabupaten Luwu Timur,1795,SN,Sulawesi Selatan,102,ID,Indonesia,-2.50957000,120.39780000,Q14597
73954,San Juan Yatzona,3448,OAX,Oaxaca,142,MX,Mexico,17.40184000,-96.16878000,Q3891002
4894,Croydon Park,3904,SA,South Australia,14,AU,Australia,-34.88028000,138.56779000,Q5189692
1987,Finkenberg,2064,7,Tyrol,15,AT,Austria,47.15279000,11.82212000,Q679897
15405,Tupi Paulista,2021,SP,São Paulo,31,BR,Brazil,-21.38916000,-51.58294000,Q1760131
48605,Borough of Stockport,2336,ENG,England,232,GB,United Kingdom,53.41667000,-2.16667000,Q1752424
75677,Tlapacoyan,3464,VER,Veracruz,142,MX,Mexico,19.96268000,-97.21141000,Q532616
5478,Gulgong,3909,NSW,New South Wales,14,AU,Australia,-32.36253000,149.53201000,Q2336057
52201,Sekondi-Takoradi,49,WP,Western,83,GH,Ghana,4.92678000,-1.75773000,Q243293
53427,Aguacatán,3670,HU,Huehuetenango Department,90,GT,Guatemala,15.34222000,-91.31141000,Q2402581
10055,Abadiânia,2000,GO,Goiás,31,BR,Brazil,-16.22632000,-48.62681000,Q304716
136214,Borgoratto Mormorolo,1705,25,Lombardy,107,IT,Italy,44.92889000,9.19402000,Q2460647
7412,Sylvania Waters,3909,NSW,New South Wales,14,AU,Australia,-34.01868000,151.10860000,Q7660710
42934,Laboissière-en-Thelle,4828,HDF,Hauts-de-France,75,FR,France,49.29329000,2.16150000,Q302444
104161,Lendava,4225,059,Lendava Municipality,201,SI,Slovenia,46.56494000,16.45091000,Q15890
136720,Cannero Riviera,1702,21,Piedmont,107,IT,Italy,46.02200000,8.67933000,Q18426515
75762,Tozihuic,3476,PUE,Puebla,142,MX,Mexico,19.25138000,-97.09697000,Q20232650
53209,Schimatári,2128,H,Central Greece Region,85,GR,Greece,38.35000000,23.58333000,Q1227707
102054,Ul’yanovskiy Rayon,1844,KLU,Kaluga Oblast,182,RU,Russia,53.66667000,35.66667000,Q4003010
85966,Brześć Kujawski,1625,KP,Kuyavian-Pomeranian Voivodeship,176,PL,Poland,52.60532000,18.90173000,Q985649
96841,Vităneşti,4728,TR,Teleorman County,181,RO,Romania,44.00000000,25.41667000,Q2723941
130207,Huyện A Lưới,3798,26,Thừa Thiên-Huế,240,VN,Vietnam,16.23422000,107.30650000,Q724711
11621,Dolcinópolis,2021,SP,São Paulo,31,BR,Brazil,-20.11666000,-50.52771000,Q1803648
89631,Valongo,2243,13,Porto,177,PT,Portugal,41.20797000,-8.50086000,Q604262
107827,Hisar,2194,72,Batman,225,TR,Turkey,37.60094000,41.22799000,Q990319
50772,Northam,2336,ENG,England,232,GB,United Kingdom,51.03333000,-4.21667000,Q1235872
102147,Usvyaty,1863,PSK,Pskov Oblast,182,RU,Russia,55.74556000,30.75333000,Q2625702
508,Saratak,2031,SH,Shirak Region,12,AM,Armenia,40.67090000,43.87231000,Q2222975
18637,Untervaz,1660,GR,Graubünden,214,CH,Switzerland,46.92750000,9.53422000,Q22388730
112609,Boundary County,1460,ID,Idaho,233,US,United States,48.76702000,-116.46288000,Q486366
36872,San Martín de Valvení,1200,LE,Léon,207,ES,Spain,41.75336000,-4.56724000,Q1770811
88193,Staroźreby,1637,MZ,Masovian Voivodeship,176,PL,Poland,52.63265000,19.98550000,Q2287092
4854,Cowra,3909,NSW,New South Wales,14,AU,Australia,-33.81138000,148.78346000,Q753124
8467,Bhātpāra Abhaynagar,811,27,Khulna District,19,BD,Bangladesh,23.01472000,89.43936000,Q855042
1536,Viedma,3639,R,Río Negro,11,AR,Argentina,-40.81345000,-62.99668000,Q44240
136913,Carpi Centro,1773,45,Emilia-Romagna,107,IT,Italy,44.78237000,10.87770000,Q3660665
114758,Craig County,1427,VA,Virginia,233,US,United States,37.48125000,-80.21234000,Q495185
149105,Jasikan,4961,OT,Oti,83,GH,Ghana,7.40940880,0.44301500,Q1432676
142975,Mucajaí,4858,RR,Roraima,31,BR,Brazil,2.43000000,-60.90000000,Q1637423
85600,Mastung District,3174,BA,Balochistan,167,PK,Pakistan,29.79455000,66.72068000,Q1026625
68022,Acachapan y Colmena 3ra. Sección,3454,TAB,Tabasco,142,MX,Mexico,18.04858000,-92.77750000,Q20129499
77240,Nandaime,943,GR,Granada,159,NI,Nicaragua,11.75696000,-86.05286000,Q1964554
148900,"Al Khadra', Makkah",2850,02,Makkah,194,SA,Saudi Arabia,21.46777778,39.90472222,Q4704201
48594,Bootle,2336,ENG,England,232,GB,United Kingdom,53.46667000,-3.01667000,Q893159
142191,Atenguillo,4857,JAL,Jalisco,142,MX,Mexico,20.41553000,-104.49387000,Q2868961
12930,Malta,2005,PB,Paraíba,31,BR,Brazil,-6.90400000,-37.51251000,Q741333
138957,Giffoni Valle Piana,1669,72,Campania,107,IT,Italy,40.71811000,14.94235000,Q18506368
31350,Hamma Bouziane,1121,25,Constantine,4,DZ,Algeria,36.41205000,6.59603000,Q3126488
107488,Devrekani,2197,37,Kastamonu,225,TR,Turkey,41.60303000,33.83922000,Q1207056
108388,Saray,2167,59,Tekirdağ,225,TR,Turkey,41.44431000,27.92194000,Q1011256
128426,Walsenburg,1450,CO,Colorado,233,US,United States,37.62418000,-104.78026000,Q1778949
79923,Winton,4071,STL,Southland Region,158,NZ,New Zealand,-46.15000000,168.33333000,Q1721802
31049,Constanza,4116,13,La Vega Province,62,DO,Dominican Republic,18.90919000,-70.74499000,Q459801
97179,Bogosavac,3716,02,Central Banat District,196,RS,Serbia,44.71799000,19.59533000,Q2736639
80053,Chame,1394,10,Panamá Oeste Province,170,PA,Panama,8.57753000,-79.88595000,Q804144
101005,Rostokino,1901,MOW,Moscow,182,RU,Russia,55.83333000,37.66667000,Q2366666
138930,Ghemme,1702,21,Piedmont,107,IT,Italy,45.59863000,8.42013000,Q101135
117442,Grambling,1457,LA,Louisiana,233,US,United States,32.52765000,-92.71404000,Q2299854
12723,Ladário,2010,MS,Mato Grosso do Sul,31,BR,Brazil,-19.10505000,-57.58416000,Q1798712
89657,Vila Nova de Gaia,2243,13,Porto,177,PT,Portugal,41.12401000,-8.61241000,Q1982979
26247,Holzmaden,3006,BW,Baden-Württemberg,82,DE,Germany,48.63333000,9.51667000,Q80654
10304,Aquidabã,2003,SE,Sergipe,31,BR,Brazil,-10.31619000,-37.10451000,Q2013098
91861,Comuna Ghioroc,4739,AR,Arad County,181,RO,Romania,46.15322000,21.59651000,Q5056328
119051,Ivins,1414,UT,Utah,233,US,United States,37.16859000,-113.67941000,Q482401
130244,Huyện Cao Lộc,3792,09,Lạng Sơn,240,VN,Vietnam,21.89857000,106.85435000,Q4838559
133393,Patamundai,4013,OR,Odisha,101,IN,India,20.57806000,86.56063000,Q2716570
129382,Windsor,1435,CT,Connecticut,233,US,United States,41.85260000,-72.64370000,Q1787206
17569,Broye-Vully District,1651,VD,Vaud,214,CH,Switzerland,46.78082000,6.90161000,Q495882
19657,Huangshan Shi,2251,AH,Anhui,45,CN,China,29.89195000,118.10553000,Q180470
52483,Archontochóri,2096,G,West Greece Region,85,GR,Greece,38.70053000,21.03896000,Q21571457
126655,South Floral Park,1452,NY,New York,233,US,United States,40.71427000,-73.70013000,Q3448973
140772,Nissoria,1709,82,Sicily,107,IT,Italy,37.65410000,14.44810000,Q18475265
98730,Ivanovka,1833,PRI,Primorsky Krai,182,RU,Russia,43.96879000,132.48331000,Q37809246
148537,Huechuraba,2824,RM,Región Metropolitana de Santiago,44,CL,Chile,-33.36928270,-70.66482650,Q14433
138737,Frisanco,1756,36,Friuli–Venezia Giulia,107,IT,Italy,46.21246000,12.72626000,Q776285
50647,Muir of Ord,2335,SCT,Scotland,232,GB,United Kingdom,57.51976000,-4.45939000,Q1011555
88895,Żuromin,1637,MZ,Masovian Voivodeship,176,PL,Poland,53.06611000,19.90894000,Q393220
98073,Bukachacha,1904,ZAB,Zabaykalsky Krai,182,RU,Russia,52.98333000,116.91667000,Q34783989
142885,Santa María de los Ángeles,4857,JAL,Jalisco,142,MX,Mexico,22.30000000,-103.03333333,Q2991008
105053,Tadmur District,2942,HI,Homs Governorate,215,SY,Syria,34.42401000,38.64580000,Q4120562
127649,Tillamook County,1415,OR,Oregon,233,US,United States,45.45645000,-123.75877000,Q495359
91475,Comuna Coşeşti,4722,AG,Arges,181,RO,Romania,45.06431000,24.87202000,Q12724673
21344,San Calixto,2877,NSA,Norte de Santander,48,CO,Colombia,8.40210000,-73.20737000,Q2348501
67485,Mislesevo,700,72,Struga Municipality,129,MK,Macedonia,41.18500000,20.70861000,Q20932446
64326,Shimabara-shi,849,42,Nagasaki Prefecture,109,JP,Japan,32.79429000,130.32925000,Q847594
139389,Latiano,1688,75,Apulia,107,IT,Italy,40.55052000,17.71856000,Q18495588
90541,Bărbăteşti,4750,GJ,Gorj County,181,RO,Romania,44.86667000,23.50000000,Q2717747
15599,Vitória da Conquista,2002,BA,Bahia,31,BR,Brazil,-15.27953000,-40.96575000,Q22062839
35315,Mas de Barberans,1203,CT,Catalonia,207,ES,Spain,40.73333000,0.36667000,Q1640944
85712,Shakargarh,3176,PB,Punjab,167,PK,Pakistan,32.26361000,75.16008000,Q33483959
65317,Gaigeturi,3853,49,Jeju,116,KR,South Korea,33.46444000,126.31833000,Q50432
102077,Uritsk,1879,SPE,Saint Petersburg,182,RU,Russia,59.83889000,30.17528000,Q37963214
142801,Poncitlán Municipality,4857,JAL,Jalisco,142,MX,Mexico,20.30000000,-102.26666667,Q3311224
140662,Motta Santa Lucia,1703,78,Calabria,107,IT,Italy,39.09122000,16.29313000,Q18506582
131176,Midrand,936,GP,Gauteng,204,ZA,South Africa,-25.98953000,28.12843000,Q639518
3518,Steinerkirchen an der Traun,2058,4,Upper Austria,15,AT,Austria,48.07911000,13.95796000,Q643744
9668,Ravda,4715,02,Burgas Province,34,BG,Bulgaria,42.64185000,27.67713000,Q167953
36980,Sant Josep de sa Talaia,1174,PM,Balearic Islands,207,ES,Spain,38.92239000,1.29437000,Q983635
102501,Yaroslavskiy,1901,MOW,Moscow,182,RU,Russia,55.88333000,37.71667000,Q33523056
39657,Avanne-Aveney,4825,BFC,Bourgogne-Franche-Comté,75,FR,France,47.20000000,5.96667000,Q790157
91502,Comuna Crivăţ,4732,CL,Călărași County,181,RO,Romania,44.19338000,26.43846000,Q16426089
33858,Cubla,1177,AR,Aragon,207,ES,Spain,40.20978000,-1.07917000,Q1644054
25304,Frohburg,3021,SN,Saxony,82,DE,Germany,51.05719000,12.55746000,Q10763
113244,Camas County,1460,ID,Idaho,233,US,United States,43.46325000,-114.80585000,Q486054
104890,Nahuizalco,4140,SO,Sonsonate Department,66,SV,El Salvador,13.77750000,-89.73667000,Q224791
116238,Eureka County,1458,NV,Nevada,233,US,United States,39.98389000,-116.26856000,Q484381
146689,Vânători,4915,MS,Mureș County,181,RO,Romania,46.24113400,24.92259400,Q1057402
124756,Purdy,1451,MO,Missouri,233,US,United States,36.81729000,-93.92076000,Q964928
66419,Vide Bouteille,3758,02,Castries Quarter,186,LC,Saint Lucia,14.02439000,-60.98066000,Q493030
148697,Buraykah,2859,11,Al Bahah,194,SA,Saudi Arabia,22.34440000,39.32000000,Q4998135
11435,Correntes,2006,PE,Pernambuco,31,BR,Brazil,-9.13378000,-36.32033000,Q776802
4490,Buronga,3909,NSW,New South Wales,14,AU,Australia,-34.17070000,142.17350000,Q5000275
21217,Polonuevo,2880,ATL,Atlántico,48,CO,Colombia,10.77697000,-74.85344000,Q1526194
143295,Azevo,4859,09,Guarda,177,PT,Portugal,40.85166667,-7.13138889,Q651803
932,Departamento de Luján,3646,M,Mendoza,11,AR,Argentina,-33.00000000,-69.33333000,Q972194
128279,Vinton,1457,LA,Louisiana,233,US,United States,30.19076000,-93.58127000,Q3239855
137655,Chiaromonte,1706,77,Basilicata,107,IT,Italy,40.12323000,16.21440000,Q3667528
88493,Wesoła,1637,MZ,Masovian Voivodeship,176,PL,Poland,52.25451000,21.22407000,Q1801709
87333,Paczków,1622,OP,Opole Voivodeship,176,PL,Poland,50.46395000,17.00658000,Q988574
25679,Großheubach,3009,BY,Bavaria,82,DE,Germany,49.72834000,9.22280000,Q502986
82635,Guinisiliban,1363,BEN,Benguet,174,PH,Philippines,9.09639000,124.78278000,Q31811367
149021,As Salamiyah,2849,01,Riyadh,194,SA,Saudi Arabia,24.20154000,47.28872000,Q12192365
148068,Balocawehay,1322,08,Eastern Visayas,174,PH,Philippines,10.72222222,124.96777778,Q31481484
120058,Lamar,1444,AR,Arkansas,233,US,United States,35.44064000,-93.38796000,Q79276
116309,Fairfield,1456,AL,Alabama,233,US,United States,33.48594000,-86.91194000,Q79722
52075,Java,902,MM,Mtskheta-Mtianeti,81,GE,Georgia,42.39972000,43.93667000,Q1025834
50654,Murton,2336,ENG,England,232,GB,United Kingdom,54.81812000,-1.39036000,Q2499972
125796,San Carlos,1407,TX,Texas,233,US,United States,26.29563000,-98.07195000,Q982112
31985,Ajalvir,1158,MD,Madrid,207,ES,Spain,40.53205000,-3.47841000,Q855674
40396,Bussang,4820,GES,Grand-Est,75,FR,France,47.88449000,6.85272000,Q819331
91317,Comuna Chiochiş,4733,BN,Bistrița-Năsăud County,181,RO,Romania,46.98381000,24.18318000,Q12116541
86802,Krzczonów,1638,LU,Lublin Voivodeship,176,PL,Poland,51.00727000,22.71097000,Q2291444
34826,Jubrique,1193,AN,Andalusia,207,ES,Spain,36.56475000,-5.21560000,Q1630392
4379,Braidwood,3909,NSW,New South Wales,14,AU,Australia,-35.44148000,149.79980000,Q2923580
99105,Klinskiy Rayon,1882,MOS,Moscow Oblast,182,RU,Russia,56.41667000,36.83333000,Q2710109
133838,Sendhwa,4039,MP,Madhya Pradesh,101,IN,India,21.68562000,75.09622000,Q2624000
31289,Bougara,1111,09,Blida,4,DZ,Algeria,36.54178000,3.08100000,Q2573679
117550,Gray,1455,GA,Georgia,233,US,United States,33.00958000,-83.53378000,Q2641897
94443,Grămeşti,4720,SV,Suceava County,181,RO,Romania,47.91667000,26.15000000,Q2606074
78694,Sint Annaparochie,2622,FR,Friesland,156,NL,Netherlands,53.27620000,5.65727000,Q2840555
131097,Eden Glen Ext 60,936,GP,Gauteng,204,ZA,South Africa,-26.12593000,28.16500000,Q220249
60278,San Vito Sullo Ionio,1703,78,Calabria,107,IT,Italy,38.70749000,16.40862000,Q18441665
122695,New City,1452,NY,New York,233,US,United States,41.14760000,-73.98931000,Q3053698
38751,Evijärvi,1498,03,Southern Ostrobothnia,74,FI,Finland,63.36667000,23.48333000,Q1001783
125980,Sawgrass,1436,FL,Florida,233,US,United States,30.19274000,-81.37064000,Q2598735
75344,Temósachic,3447,CHH,Chihuahua,142,MX,Mexico,28.95469000,-107.82957000,Q2455181
30766,Kongens Lyngby,1530,84,Capital Region of Denmark,59,DK,Denmark,55.77044000,12.50378000,Q2239
137699,Chivasso,1702,21,Piedmont,107,IT,Italy,45.19093000,7.88981000,Q18491582
71524,La Unión Ejido Mexcaltepec,3476,PUE,Puebla,142,MX,Mexico,19.60806000,-97.71056000,Q20230673
143030,Central Aguirre,1449,PR,Puerto Rico,233,US,United States,17.95472000,-66.22611000,Q2153956
28596,Reutlingen,3006,BW,Baden-Württemberg,82,DE,Germany,48.49144000,9.20427000,Q3085
35372,Medina de las Torres,1190,EX,Extremadura,207,ES,Spain,38.33333000,-6.40000000,Q1406716
139039,Goro,1773,45,Emilia-Romagna,107,IT,Italy,44.85150000,12.29651000,Q18501820
63146,Ash Shajarah,960,IR,Irbid Governorate,111,JO,Jordan,32.64391000,35.94175000,Q867586
41679,Entrammes,4802,PDL,Pays-de-la-Loire,75,FR,France,47.99759000,-0.71399000,Q49349748
126156,Seneca,1443,SC,South Carolina,233,US,United States,34.68566000,-82.95320000,Q2679162
74420,San Quintín,3451,CHP,Chiapas,142,MX,Mexico,16.40672000,-91.34575000,Q257091
22541,Kostelec nad Černými Lesy,4554,20,Středočeský kraj,58,CZ,Czech Republic,49.99403000,14.85922000,Q1641717
136178,Borgo Podgora,1678,62,Lazio,107,IT,Italy,41.51462000,12.85383000,Q1120731
107560,Elbeyli,2163,16,Bursa,225,TR,Turkey,40.48611000,29.72472000,Q4817523
35058,Lituénigo,1177,AR,Aragon,207,ES,Spain,41.83533000,-1.76196000,Q1632405
78530,Ootmarsum,2618,OV,Overijssel,156,NL,Netherlands,52.40833000,6.90139000,Q1615365
131610,Chima,4015,PB,Punjab,101,IN,India,30.68540000,76.08643000,Q532883
7761,Wembley Downs,3906,WA,Western Australia,14,AU,Australia,-31.91169000,115.77358000,Q7982179
86996,Markuszów,1638,LU,Lublin Voivodeship,176,PL,Poland,51.37457000,22.25804000,Q735224
27368,Meerdorf,3008,NI,Lower Saxony,82,DE,Germany,52.34583000,10.31745000,Q1742671
119178,Jefferson County,1455,GA,Georgia,233,US,United States,33.05484000,-82.41815000,Q486386
110929,Margherita,370,W,Western Region,229,UG,Uganda,0.41861000,29.89111000,Q6699738
84240,Province of Siquijor,1344,BAN,Bataan,174,PH,Philippines,9.18333000,123.56667000,Q13879
16310,Château-Richer,873,QC,Quebec,39,CA,Canada,46.96031000,-71.03219000,Q142001
82859,Kampokpok,1352,BTN,Batanes,174,PH,Philippines,11.29620000,124.40500000,Q31811602
10364,Arauá,2003,SE,Sergipe,31,BR,Brazil,-11.26222000,-37.61972000,Q1802037
114891,Cudjoe Key,1436,FL,Florida,233,US,United States,24.67153000,-81.49842000,Q1143140
73017,Quecholac,3476,PUE,Puebla,142,MX,Mexico,18.95471000,-97.65858000,Q20231373
130044,Barcelona,2050,B,Anzoátegui,239,VE,Venezuela,10.13625000,-64.68618000,Q391221
76721,Kollo,67,6,Tillabéri Region,160,NE,Niger,13.30430000,2.33900000,Q912927
101284,Shebekino,1903,BEL,Belgorod Oblast,182,RU,Russia,50.40967000,36.91360000,Q59828
33362,Casas de Fernando Alonso,1205,CM,Castilla La Mancha,207,ES,Spain,39.35065000,-2.32402000,Q931490
2728,Mooskirchen,2059,6,Styria,15,AT,Austria,46.98167000,15.27889000,Q669467
18167,Monthey,1648,VS,Valais,214,CH,Switzerland,46.25451000,6.95406000,Q70075
3791,Weppersdorf,2062,1,Burgenland,15,AT,Austria,47.57954000,16.42679000,Q663238
21987,Assomada,2985,CA,Santa Catarina,40,CV,Cape Verde,15.10000000,-23.68333000,Q490573
26325,Höttingen,3009,BY,Bavaria,82,DE,Germany,49.06262000,11.00530000,Q525864
10444,Augusto Pestana,2001,RS,Rio Grande do Sul,31,BR,Brazil,-28.54034000,-53.97927000,Q1804338
43486,Lillebonne,4804,NOR,Normandie,75,FR,France,49.52030000,0.53617000,Q837563
25564,Grafengehaig,3009,BY,Bavaria,82,DE,Germany,50.20310000,11.59358000,Q511113
121642,Memphis,1407,TX,Texas,233,US,United States,34.72478000,-100.53401000,Q979971
54643,Kaštela,725,17,Split-Dalmatia County,55,HR,Croatia,43.53865000,16.30740000,Q2630250
32959,Borox,1205,CM,Castilla La Mancha,207,ES,Spain,40.06795000,-3.73804000,Q1628592
116871,Franklin Springs,1455,GA,Georgia,233,US,United States,34.28483000,-83.14432000,Q2872490
4161,Beaconsfield,3903,VIC,Victoria,14,AU,Australia,-38.05000000,145.36667000,Q812898
599,Cazaji,220,LSU,Lunda Sul Province,7,AO,Angola,-11.06715000,20.70148000,Q956745
102913,Victoria,516,16,La Rivière Anglaise,197,SC,Seychelles,-4.62001000,55.45501000,Q3940
58876,Ponteranica,1705,25,Lombardy,107,IT,Italy,45.73248000,9.65175000,Q18439570
51895,Wickwar,2336,ENG,England,232,GB,United Kingdom,51.59404000,-2.39968000,Q1222802
130262,Huyện Chợ Mới,3794,44,An Giang,240,VN,Vietnam,10.47730000,105.49092000,Q1927073
106110,Titu,4745,DB,Dâmbovița County,181,RO,Romania,44.65000000,25.53333000,Q12163256
32980,Breña Alta,1185,CN,Canary Islands,207,ES,Spain,28.65000000,-17.78333000,Q433958
103675,Sala,1549,U,Västmanland County,213,SE,Sweden,59.91993000,16.60655000,Q2007157
147195,Lamiyan,4920,13,Hamadan Province,103,IR,Iran,34.46277778,48.19277778,Q6482033
139999,Mattarello,1725,32,Trentino-South Tyrol,107,IT,Italy,46.00865000,11.12984000,Q2095712
110680,Vasyshcheve,4686,63,Kharkiv Oblast,230,UA,Ukraine,49.82852000,36.32691000,Q4105050
4621,Casey,3907,ACT,Australian Capital Territory,14,AU,Australia,-35.16701000,149.09470000,Q5048437
145707,Santa Ana,1326,AGS,Agusan del Sur,174,PH,Philippines,15.09388889,120.76805556,Q55727
57220,Droichead Nua,1073,L,Leinster,105,IE,Ireland,53.18194000,-6.79667000,Q958397
131853,Faridabad,4007,HR,Haryana,101,IN,India,28.41124000,77.31316000,Q200663
19593,Hami,2263,XJ,Xinjiang,45,CN,China,42.83393000,93.50601000,Q286266
350,Bambakashat,2026,AV,Armavir Region,12,AM,Armenia,40.10828000,44.01947000,Q744617
103809,Sätila,1547,O,Västra Götaland County,213,SE,Sweden,57.54172000,12.43429000,Q3032670
22271,Dolní Benešov,4600,80,Moravskoslezský kraj,58,CZ,Czech Republic,49.92101000,18.10835000,Q1236048
98306,Domna,1904,ZAB,Zabaykalsky Krai,182,RU,Russia,51.89712000,113.15730000,Q4165887
25848,Halensee,3010,BE,Berlin,82,DE,Germany,52.49005000,13.29602000,Q651009
24382,Bucha,3015,TH,Thuringia,82,DE,Germany,50.88333000,11.51667000,Q526509
90913,Comuna Baba Ana,4729,PH,Prahova County,181,RO,Romania,44.97508000,26.48588000,Q5053313
106216,Amphoe Si Mueang Mai,3512,34,Ubon Ratchathani,219,TH,Thailand,15.56297000,105.34830000,Q476696
75886,Unión Roja,3451,CHP,Chiapas,142,MX,Mexico,15.04658000,-92.21653000,Q20291241
24527,Cavertitz,3021,SN,Saxony,82,DE,Germany,51.38333000,13.13333000,Q16041
4923,Dalkeith,3906,WA,Western Australia,14,AU,Australia,-31.99517000,115.79980000,Q5211061
89191,Fradelos,2244,03,Braga,177,PT,Portugal,41.36846000,-8.59887000,Q49350450
50062,Inverkeithing,2335,SCT,Scotland,232,GB,United Kingdom,56.03297000,-3.39555000,Q1010422
124991,Reed City,1426,MI,Michigan,233,US,United States,43.87502000,-85.51005000,Q2629803
17676,Dardagny,1647,GE,Geneva,214,CH,Switzerland,46.19564000,5.99497000,Q22559647
99380,Krasnyy Yar,1846,OMS,Omsk Oblast,182,RU,Russia,55.24242000,72.92635000,Q4239654
65665,Derzhavīnsk,145,AKM,Akmola Region,112,KZ,Kazakhstan,51.09922000,66.31557000,Q2374413
137355,Castiglione delle Stiviere,1705,25,Lombardy,107,IT,Italy,45.39020000,10.48619000,Q18457021
11461,Crato,2016,CE,Ceará,31,BR,Brazil,-7.14714000,-39.47132000,Q1004897
44778,Ormoy,4796,IDF,Île-de-France,75,FR,France,48.57489000,2.45206000,Q6548
85022,Tampakan,1316,14,Autonomous Region in Muslim Mindanao,174,PH,Philippines,4.92278000,119.79389000,Q31545170
123542,Ord,1408,NE,Nebraska,233,US,United States,41.60334000,-98.92620000,Q955607
9579,Obshtina Saedinenie,4701,16,Plovdiv Province,34,BG,Bulgaria,42.31667000,24.58333000,Q523537
52884,Magoúla,2127,23,Kefalonia Prefecture,85,GR,Greece,39.45395000,21.80351000,Q21533897
39319,Allan,4798,ARA,Auvergne-Rhône-Alpes,75,FR,France,44.49713000,4.79068000,Q34796417
121185,Marathon,1441,WI,Wisconsin,233,US,United States,44.92913000,-89.84040000,Q2058499
84529,San Juan,1352,BTN,Batanes,174,PH,Philippines,11.00056000,124.53917000,Q31505412
86722,Kotla,1629,DS,Lower Silesian Voivodeship,176,PL,Poland,51.74542000,16.03575000,Q2204181
19571,Guilin Shi,2278,GX,Guangxi Zhuang,45,CN,China,25.28333000,110.28333000,Q189633
106550,Lamphun,3483,51,Lamphun,219,TH,Thailand,18.58054000,99.00745000,Q1211214
105199,Amphoe Ban Lat,3532,76,Phetchaburi,219,TH,Thailand,13.04533000,99.83788000,Q475122
36135,Peralejos de Abajo,1200,LE,Léon,207,ES,Spain,41.00469000,-6.36238000,Q941599
60730,Sennori,1715,88,Sardinia,107,IT,Italy,40.78780000,8.59285000,Q18477381
96997,Zizin,4759,BV,Brașov County,181,RO,Romania,45.63697000,25.77898000,Q740224
65897,Muang Sanamxai,982,AT,Attapeu Province,119,LA,Laos,14.73807000,106.41328000,Q7415490
118958,Inverness,1450,CO,Colorado,233,US,United States,39.57738000,-104.86135000,Q3306123
97726,Aya,1911,ALT,Altai Krai,182,RU,Russia,51.94532000,85.80168000,Q4073771
108901,İnegol,2163,16,Bursa,225,TR,Turkey,40.07806000,29.51333000,Q343973
128498,Warren County,1422,PA,Pennsylvania,233,US,United States,41.81457000,-79.27414000,Q495662
96380,Slon,4729,PH,Prahova County,181,RO,Romania,45.35521000,26.04189000,Q12153795
94984,Mihail Kogălniceanu,4737,CT,Constanța County,181,RO,Romania,44.36798000,28.46000000,Q1077654
94415,Griviţa,4743,IL,Ialomița County,181,RO,Romania,44.73333000,27.28333000,Q8272803
130529,Huyện Điện Bàn,3776,27,Quảng Nam,240,VN,Vietnam,15.89917000,108.22470000,Q5295738
116191,Essex,1401,MD,Maryland,233,US,United States,39.30927000,-76.47496000,Q754704
2309,Hofkirchen im Traunkreis,2058,4,Upper Austria,15,AT,Austria,48.14312000,14.37776000,Q339705
44057,Meymac,4795,NAQ,Nouvelle-Aquitaine,75,FR,France,45.53583000,2.14699000,Q191784
117638,Greene County,1447,NC,North Carolina,233,US,United States,35.48541000,-77.67587000,Q511772
128115,Valley Springs,1416,CA,California,233,US,United States,38.19159000,-120.82910000,Q1976510
74286,San Pablo Coatlán,3448,OAX,Oaxaca,142,MX,Mexico,16.22429000,-96.78379000,Q4968966
113329,Canisteo,1452,NY,New York,233,US,United States,42.27035000,-77.60582000,Q3460747
136419,Busana,1773,45,Emilia-Romagna,107,IT,Italy,44.36886000,10.32339000,Q18446439
53756,Santa Cruz Muluá,3664,RE,Retalhuleu Department,90,GT,Guatemala,14.58153000,-91.62441000,Q1748852
38994,Posio,1500,LL,Lapland,74,FI,Finland,66.10856000,28.17186000,Q193367
101617,Stepnoye,1868,STA,Stavropol Krai,182,RU,Russia,44.27083000,44.58500000,Q37957051
109296,Ushirombo,1481,27,Geita,218,TZ,Tanzania,-3.49194000,31.96389000,Q49369134
66317,Obrier,3763,11,Vieux Fort Quarter,186,LC,Saint Lucia,13.76831000,-60.97313000,Q11779522
93965,Dobroteşti,4728,TR,Teleorman County,181,RO,Romania,44.28333000,24.88333000,Q2549496
120142,Laredo,1407,TX,Texas,233,US,United States,27.50641000,-99.50754000,Q16868
39514,Ars-sur-Formans,4798,ARA,Auvergne-Rhône-Alpes,75,FR,France,45.99491000,4.81986000,Q300000
133297,Okha,4030,GJ,Gujarat,101,IN,India,22.46756000,69.07002000,Q2726034
87397,Piskorowice,1626,PK,Podkarpackie Voivodeship,176,PL,Poland,50.23579000,22.52867000,Q11818491
145933,Halog West,1324,ABR,Abra,174,PH,Philippines,16.36666667,120.41472222,Q31811413
15343,Touros,2019,RN,Rio Grande do Norte,31,BR,Brazil,-5.26111000,-35.60459000,Q1797006
94326,Ghimpețeni,4738,OT,Olt County,181,RO,Romania,44.28101000,24.77458000,Q2549834
40559,Carrières-sous-Poissy,4796,IDF,Île-de-France,75,FR,France,48.94952000,2.04068000,Q34790092
50080,Isle of North Uist,2335,SCT,Scotland,232,GB,United Kingdom,57.60581000,-7.34024000,Q2533408
57669,Ambedkar Nagar,4022,UP,Uttar Pradesh,101,IN,India,26.40544000,82.69762000,Q456764
106145,Traian,4736,BR,Braila,181,RO,Romania,45.18333000,27.73333000,Q12162255
114872,Crugers,1452,NY,New York,233,US,United States,41.23343000,-73.92264000,Q5189928
61482,Trentinara,1669,72,Campania,107,IT,Italy,40.39998000,15.11545000,Q18499012
98108,Chagoda,1874,VLG,Vologda Oblast,182,RU,Russia,59.16400000,35.32850000,Q1968782
9246,Yako,3164,10,"Nord Region, Burkina Faso",35,BF,Burkina Faso,12.95910000,-2.26075000,Q940973
80478,San Félix,1397,4,Chiriquí Province,170,PA,Panama,8.29063000,-81.86702000,Q7386411
100109,Nerl’,1864,IVA,Ivanovo Oblast,182,RU,Russia,56.66285000,40.38931000,Q37895647
103009,Arbrå,1533,X,Gävleborg County,213,SE,Sweden,61.46667000,16.38333000,Q1970727
135213,Skaftárhreppur,3434,8,Southern Region,100,IS,Iceland,63.95948000,-18.14491000,Q2066213
47529,Vaucouleurs,4820,GES,Grand-Est,75,FR,France,48.60313000,5.66659000,Q1345560
96906,Vulpeni,4738,OT,Olt County,181,RO,Romania,44.46667000,23.91667000,Q5117092
90265,Braloştiţa,4742,DJ,Dolj County,181,RO,Romania,44.50000000,23.51667000,Q635609
8592,Shāhzādpur,813,54,Rajshahi District,19,BD,Bangladesh,24.17687000,89.59880000,Q4521178
46439,Saint-Pierre-du-Chemin,4802,PDL,Pays-de-la-Loire,75,FR,France,46.69523000,-0.70095000,Q1415047
21294,Riosucio,2887,CAL,Caldas,48,CO,Colombia,5.42164000,-75.70318000,Q1093015
702,Buchardo,3642,X,Córdoba,11,AR,Argentina,-34.72263000,-63.50920000,Q8253269
3925,Airlie Beach,3905,QLD,Queensland,14,AU,Australia,-20.26751000,148.71471000,Q408765
111458,Arkansas County,1444,AR,Arkansas,233,US,United States,34.29081000,-91.37491000,Q61414
110352,Richky,4672,46,Lviv Oblast,230,UA,Ukraine,50.27706000,23.64617000,Q4393994
104350,Šentvid pri Stični,4305,039,Ivančna Gorica Municipality,201,SI,Slovenia,45.95004000,14.84344000,Q2613333
22848,Okres Plzeň-město,4608,324,Plzeň-jih,58,CZ,Czech Republic,49.75000000,13.36667000,Q1080673
139628,Lubriano,1678,62,Lazio,107,IT,Italy,42.63623000,12.10876000,Q18509842
2570,Leitzersdorf,2065,3,Lower Austria,15,AT,Austria,48.41918000,16.24513000,Q533521
14789,Simões Filho,2002,BA,Bahia,31,BR,Brazil,-12.78444000,-38.40389000,Q1645080
48918,Chapeltown,2336,ENG,England,232,GB,United Kingdom,53.46506000,-1.47217000,Q3666269
63702,Kamogawa,821,12,Chiba Prefecture,109,JP,Japan,35.09690000,140.10030000,Q857293
127752,Towanda,1422,PA,Pennsylvania,233,US,United States,41.76758000,-76.44272000,Q671662
128621,Watertown,1433,MA,Massachusetts,233,US,United States,42.37093000,-71.18283000,Q54172
14737,Serra de São Bento,2019,RN,Rio Grande do Norte,31,BR,Brazil,-6.43702000,-35.71194000,Q1754911
50262,Layer de la Haye,2336,ENG,England,232,GB,United Kingdom,51.84593000,0.85745000,Q2744886
94041,Drăgoeşti,4757,VL,Vâlcea County,181,RO,Romania,44.81667000,24.30000000,Q2180423
72744,Petatlán,3459,GRO,Guerrero,142,MX,Mexico,17.53768000,-101.26798000,Q4360151
92790,Comuna Rona de Sus,4760,MM,Maramureș County,181,RO,Romania,47.90184000,24.03877000,Q5063122
23268,Vikýřovice,4589,71,Olomoucký kraj,58,CZ,Czech Republic,49.97792000,17.01234000,Q1255985
27820,Nickenich,3019,RP,Rhineland-Palatinate,82,DE,Germany,50.41421000,7.32728000,Q567117
85900,Boguty-Pianki,1637,MZ,Masovian Voivodeship,176,PL,Poland,52.71680000,22.41546000,Q2580095
49627,Garforth,2336,ENG,England,232,GB,United Kingdom,53.79173000,-1.38067000,Q2559795
115041,Darby,1422,PA,Pennsylvania,233,US,United States,39.91845000,-75.25907000,Q1133990
127407,Tampa,1436,FL,Florida,233,US,United States,27.94752000,-82.45843000,Q49255
125942,Saratoga,1442,WY,Wyoming,233,US,United States,41.45496000,-106.80643000,Q1028396
23382,Čerčany,4554,20,Středočeský kraj,58,CZ,Czech Republic,49.85293000,14.70299000,Q340064
89449,Quinta Do Conde,2242,15,Setúbal,177,PT,Portugal,38.56528000,-9.04316000,Q1003060
121933,Miner County,1445,SD,South Dakota,233,US,United States,44.02195000,-97.61025000,Q338939
83521,Manicahan,1362,ZSI,Zamboanga Sibugay,174,PH,Philippines,7.01944000,122.20111000,Q31812254
143059,Fajardo Municipio,1449,PR,Puerto Rico,233,US,United States,18.31051000,-65.67600000,Q33672676
147774,Kalamboli,4008,MH,Maharashtra,101,IN,India,19.03333000,73.10000000,Q5457414
201,Fier-Çifçi,631,04,Fier County,3,AL,Albania,40.71667000,19.56667000,Q22012402
46728,Sainte-Soulle,4795,NAQ,Nouvelle-Aquitaine,75,FR,France,46.18847000,-1.01607000,Q264579
16325,Collingwood,866,ON,Ontario,39,CA,Canada,44.48340000,-80.21638000,Q3501912
16654,Mannville,872,AB,Alberta,39,CA,Canada,53.33764000,-111.17750000,Q955573
3260,Sankt Georgen ob Judenburg,2059,6,Styria,15,AT,Austria,47.20744000,14.49736000,Q696240
100616,Pervomayskiy,1857,NIZ,Nizhny Novgorod Oblast,182,RU,Russia,56.61474000,43.35825000,Q37959182
4857,Crafers West,3904,SA,South Australia,14,AU,Australia,-34.99136000,138.68205000,Q5180517
88599,Wołomin,1637,MZ,Masovian Voivodeship,176,PL,Poland,52.34006000,21.24207000,Q930149
119560,Killian,1457,LA,Louisiana,233,US,United States,30.35881000,-90.58620000,Q2854583
103876,Trollhättan,1547,O,Västra Götaland County,213,SE,Sweden,58.21208000,12.35033000,Q28532
8405,Turbe,467,BIH,Federation of Bosnia and Herzegovina,28,BA,Bosnia and Herzegovina,44.24352000,17.57499000,Q1017935
88747,Złotniki,1629,DS,Lower Silesian Voivodeship,176,PL,Poland,51.13769000,16.88923000,Q8076202
32477,Aria,1204,NC,Navarra,207,ES,Spain,42.95283000,-1.26584000,Q1985331
121886,Millersburg,1422,PA,Pennsylvania,233,US,United States,40.53953000,-76.96081000,Q1184709
24977,Elxleben,3015,TH,Thuringia,82,DE,Germany,51.05000000,10.95000000,Q275193
74373,San Pedro Tarímbaro,3450,MEX,México,142,MX,Mexico,19.80799000,-100.22541000,Q3892459
18684,Villmergen,1639,AG,Aargau,214,CH,Switzerland,47.35009000,8.24762000,Q22423982
12853,Loreto,2015,MA,Maranhão,31,BR,Brazil,-7.11921000,-45.23138000,Q1948966
147564,Tilsahri,4022,UP,Uttar Pradesh,101,IN,India,26.33330000,80.41670000,Q4881491
41530,Doncourt-lès-Conflans,4820,GES,Grand-Est,75,FR,France,49.14250000,5.93368000,Q59701
115399,Donley County,1407,TX,Texas,233,US,United States,34.96542000,-100.81399000,Q109451
138234,Dazio,1705,25,Lombardy,107,IT,Italy,46.16129000,9.60064000,Q18438089
127406,Tamiami,1436,FL,Florida,233,US,United States,25.75871000,-80.39839000,Q2155610
138471,Felizzano,1702,21,Piedmont,107,IT,Italy,44.89935000,8.43584000,Q18446847
94943,Mediaş,4755,SB,Sibiu County,181,RO,Romania,46.16667000,24.35000000,Q1084767
43028,Langon,4795,NAQ,Nouvelle-Aquitaine,75,FR,France,44.55310000,-0.24951000,Q35711514
62950,Rose Hall,3745,08,Saint James Parish,108,JM,Jamaica,18.51228000,-77.81833000,Q2125159
136825,Capua,1669,72,Campania,107,IT,Italy,41.10519000,14.21269000,Q18509327
60180,San Pietro Mosezzo,1702,21,Piedmont,107,IT,Italy,45.45455000,8.54450000,Q18446250
138013,Corigliano Scalo,1703,78,Calabria,107,IT,Italy,39.62713000,16.51368000,Q18429714
55614,Kiszombor,1031,CS,Csongrád County,99,HU,Hungary,46.18333000,20.43333000,Q1112590
93799,Câmpineanca,4758,VN,Vrancea County,181,RO,Romania,45.71166000,27.12832000,Q13825980
105674,Amphoe Nong Na Kham,3485,40,Khon Kaen,219,TH,Thailand,16.81010000,102.32800000,Q476268
21209,Pisba,2903,BOY,Boyacá,48,CO,Colombia,5.72396000,-72.48646000,Q1656260
22940,Plesná,4581,41,Karlovarský kraj,58,CZ,Czech Republic,50.22070000,12.34669000,Q775651
122845,Newport,1420,MN,Minnesota,233,US,United States,44.86636000,-93.00049000,Q2228334
67443,Izvor,659,48,Lipkovo Municipality,129,MK,Macedonia,42.20322000,21.57812000,Q20932189
135882,Baselga di Pinè,1725,32,Trentino-South Tyrol,107,IT,Italy,46.13250000,11.24648000,Q3635515
68594,Benito Juárez,3464,VER,Veracruz,142,MX,Mexico,20.88635000,-98.20594000,Q4888100
30698,Hedensted,1531,82,Central Denmark Region,59,DK,Denmark,55.77043000,9.70110000,Q3500912
39750,Ballainvilliers,4796,IDF,Île-de-France,75,FR,France,48.67481000,2.30057000,Q248945
14188,Regeneração,2008,PI,Piauí,31,BR,Brazil,-6.27844000,-42.48165000,Q1879913
2194,Götzens,2064,7,Tyrol,15,AT,Austria,47.23606000,11.31154000,Q667639
40154,Boufféré,4802,PDL,Pays-de-la-Loire,75,FR,France,46.96179000,-1.33965000,Q580213
110356,Rivnens’ka Mis’krada,4683,56,Rivne Oblast,230,UA,Ukraine,50.61300000,26.24588000,Q2347421
145556,Maria Aurora,1326,AGS,Agusan del Sur,174,PH,Philippines,15.79670000,121.47370000,Q53090
20062,Shancheng,2252,SD,Shandong,45,CN,China,34.79528000,116.08167000,Q319804
58882,Ponti,1702,21,Piedmont,107,IT,Italy,44.62847000,8.36461000,Q3908215
64764,Ōtsu-shi,845,25,Shiga Prefecture,109,JP,Japan,35.10203000,135.92452000,Q202907
108156,Marmara Ereğlisi,2167,59,Tekirdağ,225,TR,Turkey,40.97003000,27.95528000,Q985638
132122,Hoshiarpur,4015,PB,Punjab,101,IN,India,31.53723000,75.91269000,Q928349
88237,Stróża,1635,MA,Lesser Poland Voivodeship,176,PL,Poland,49.79628000,19.92379000,Q597574
123340,Oceana County,1426,MI,Michigan,233,US,United States,43.68178000,-86.31683000,Q63951
26901,Langelsheim,3008,NI,Lower Saxony,82,DE,Germany,51.93789000,10.33264000,Q628260
22597,Letohrad,4588,53,Pardubický kraj,58,CZ,Czech Republic,50.03580000,16.49879000,Q1010158
24817,Düsseldorf,3017,NW,North Rhine-Westphalia,82,DE,Germany,51.22172000,6.77616000,Q1718
18423,Saint-Blaise,1659,NE,Neuchâtel,214,CH,Switzerland,47.01511000,6.98832000,Q22380701
32070,Alcalá de Guadaira,1193,AN,Andalusia,207,ES,Spain,37.33791000,-5.83951000,Q494781
83049,Laug,1345,03,Central Luzon,174,PH,Philippines,15.04659000,120.75149000,Q31811813
29369,Steinen,3006,BW,Baden-Württemberg,82,DE,Germany,47.64446000,7.73914000,Q556975
27999,Obermichelbach,3009,BY,Bavaria,82,DE,Germany,49.53117000,10.90891000,Q521007
56460,Kabupaten Klungkung,1826,BA,Bali,102,ID,Indonesia,-8.55000000,115.40000000,Q11503
121233,Marion,1425,IL,Illinois,233,US,United States,37.73061000,-88.93313000,Q575399
88433,Tworków,1623,SL,Silesian Voivodeship,176,PL,Poland,50.00559000,18.23576000,Q672733
112219,Bergenfield,1417,NJ,New Jersey,233,US,United States,40.92760000,-73.99736000,Q819548
132216,Jalna,4008,MH,Maharashtra,101,IN,India,19.80000000,75.90000000,Q30771
114290,Clinton County,1419,KY,Kentucky,233,US,United States,36.72748000,-85.13601000,Q491850
70003,El Jiadi,3470,HID,Hidalgo,142,MX,Mexico,20.24842000,-98.92815000,Q50010759
27790,Neusitz,3009,BY,Bavaria,82,DE,Germany,49.37185000,10.22559000,Q505552
124119,Phelan,1416,CA,California,233,US,United States,34.42611000,-117.57228000,Q3470873
58647,Pieve del Cairo,1705,25,Lombardy,107,IT,Italy,45.04920000,8.80322000,Q18485797
108728,Yeşilyurt,2158,44,Malatya,225,TR,Turkey,38.29602000,38.24526000,Q1582858
90920,Comuna Bala,4751,MH,Mehedinți County,181,RO,Romania,44.89479000,22.83235000,Q12724528
70400,Felipe Neri (Cuatepec),3465,MOR,Morelos,142,MX,Mexico,19.03944000,-98.94361000,Q20235969
91112,Comuna Brădeni,4755,SB,Sibiu County,181,RO,Romania,46.06701000,24.86289000,Q5059180
149100,East Mamprusi,4960,NE,North East,83,GH,Ghana,10.42931860,-0.53078850,Q824725
43628,Lubersac,4795,NAQ,Nouvelle-Aquitaine,75,FR,France,45.44474000,1.40457000,Q1020851
47958,Wattwiller,4820,GES,Grand-Est,75,FR,France,47.83649000,7.17785000,Q545447
37182,Sayalonga,1193,AN,Andalusia,207,ES,Spain,36.79819000,-4.01325000,Q1630141
6262,Merriwa,3906,WA,Western Australia,14,AU,Australia,-31.66494000,115.71273000,Q6820375
15659,Água Fria,2002,BA,Bahia,31,BR,Brazil,-11.74762000,-38.73497000,Q1796727
99550,Lazo,1833,PRI,Primorsky Krai,182,RU,Russia,43.38563000,133.90610000,Q4253027
91566,Comuna Căbeşti,4723,BH,Bihor County,181,RO,Romania,46.76593000,22.37157000,Q12724714
92675,Comuna Prigoria,4750,GJ,Gorj County,181,RO,Romania,45.05711000,23.68453000,Q12725059
13058,Matias Olímpio,2008,PI,Piauí,31,BR,Brazil,-3.68774000,-42.60695000,Q1894372
140513,Monterchi,1664,52,Tuscany,107,IT,Italy,43.48733000,12.11054000,Q124393
106332,Amphoe Waeng Yai,3485,40,Khon Kaen,219,TH,Thailand,15.92532000,102.46221000,Q476991
22247,Cítov,4554,20,Středočeský kraj,58,CZ,Czech Republic,50.37225000,14.39813000,Q1150851
94515,Găvănești,4756,BZ,Buzău County,181,RO,Romania,45.08825000,27.06499000,Q12094517
120414,Lewis County,1451,MO,Missouri,233,US,United States,40.09690000,-91.72214000,Q490095
129158,White Rock,1423,NM,New Mexico,233,US,United States,35.82753000,-106.20391000,Q2738861
56743,Kota Blitar,1827,JI,Jawa Timur,102,ID,Indonesia,-8.10000000,112.16667000,Q14182
54253,San José de Tarros,4053,SB,Santa Bárbara Department,97,HN,Honduras,15.30000000,-88.70000000,Q25268885
113598,Cecil County,1401,MD,Maryland,233,US,United States,39.56242000,-75.94811000,Q385365
79288,Kristiansund,1020,15,Møre og Romsdal,165,NO,Norway,63.11152000,7.73198000,Q109483
96625,Tăureni,4749,HR,Harghita County,181,RO,Romania,46.26667000,25.25000000,Q15931292
100747,Pokrovskoye,1837,ROS,Rostov Oblast,182,RU,Russia,47.41570000,38.89706000,Q4369422
67606,Kangaba,250,2,Koulikoro Region,134,ML,Mali,11.93333000,-8.41667000,Q1031919
55485,Hajdúhadház,1063,HB,Hajdú-Bihar County,99,HU,Hungary,47.68333000,21.66667000,Q911530
15574,Vila Pavão,2018,ES,Espírito Santo,31,BR,Brazil,-18.61186000,-40.65163000,Q2065169
43212,Le Lavandou,4812,PAC,Provence-Alpes-Côte-d’Azur,75,FR,France,43.13700000,6.36600000,Q579445
57658,Amalapuram,4017,AP,Andhra Pradesh,101,IN,India,16.57868000,82.00609000,Q588625
66360,Roblot,3760,03,Choiseul Quarter,186,LC,Saint Lucia,13.80323000,-61.02297000,Q11779522
61267,Tettorosso,1702,21,Piedmont,107,IT,Italy,44.47284000,7.34291000,Q18441166
129060,Weston,1429,WV,West Virginia,233,US,United States,39.03843000,-80.46731000,Q2532326
145709,Santa Cruz,1326,AGS,Agusan del Sur,174,PH,Philippines,15.76527778,119.90916667,Q31510657
23420,Šternberk,4589,71,Olomoucký kraj,58,CZ,Czech Republic,49.73044000,17.29889000,Q392429
56127,Zirc,1054,VE,Veszprém County,99,HU,Hungary,47.26362000,17.87373000,Q205607
75675,Tlapa de Comonfort,3459,GRO,Guerrero,142,MX,Mexico,17.54528000,-98.57599000,Q2446447
73649,San Ignacio,3468,SON,Sonora,142,MX,Mexico,30.69695000,-110.92207000,Q1754752
137150,Castel San Giorgio,1669,72,Campania,107,IT,Italy,40.78198000,14.70090000,Q18454463
70671,Hermenegildo J. Aldana,3464,VER,Veracruz,142,MX,Mexico,18.00611000,-94.61222000,Q20269271
82388,Dasol,1355,01,Ilocos Region,174,PH,Philippines,15.99020000,119.88280000,Q41917
103049,Bjärnum,1541,M,Skåne County,213,SE,Sweden,56.29032000,13.71128000,Q2487489
84733,Santo Tomas,1342,02,Cagayan Valley,174,PH,Philippines,17.39972000,121.76455000,Q40521
7059,Rose Bay,3909,NSW,New South Wales,14,AU,Australia,-33.86877000,151.27060000,Q995167
110132,Novomoskovs’k,4675,12,Dnipropetrovsk Oblast,230,UA,Ukraine,48.63799000,35.24548000,Q640680
12774,Laje do Muriaé,1997,RJ,Rio de Janeiro,31,BR,Brazil,-21.23762000,-42.13269000,Q519652
34391,Gallegos del Río,1200,LE,Léon,207,ES,Spain,41.73497000,-6.17435000,Q507089
103724,Skövde,1547,O,Västra Götaland County,213,SE,Sweden,58.39118000,13.84506000,Q21166
131921,Garhshankar,4015,PB,Punjab,101,IN,India,31.21537000,76.14149000,Q1655903
139333,Laino Borgo,1703,78,Calabria,107,IT,Italy,39.95430000,15.97348000,Q18454703
136591,Camino al Tagliamento,1756,36,Friuli–Venezia Giulia,107,IT,Italy,45.92767000,12.94489000,Q18453662
145869,Cabittaogan,1324,ABR,Abra,174,PH,Philippines,17.57777778,120.35916667,Q31523679
38378,Villota del Páramo,1200,LE,Léon,207,ES,Spain,42.55234000,-4.84893000,Q1922132
12660,João Dias,2019,RN,Rio Grande do Norte,31,BR,Brazil,-6.28506000,-37.79365000,Q507247
81090,Nipa Kutubu,4844,SHM,Southern Highlands Province,171,PG,Papua new Guinea,-6.33333000,143.33333000,Q3711238
50569,Middle Rasen,2336,ENG,England,232,GB,United Kingdom,53.38722000,-0.36202000,Q3297846
37649,Tudela de Duero,1200,LE,Léon,207,ES,Spain,41.58450000,-4.58093000,Q1651692
66281,Monchy/Ti Dauphin,3766,06,Gros Islet Quarter,186,LC,Saint Lucia,14.04081000,-60.93225000,Q11779522
9652,Peshtera,4712,13,Pazardzhik Province,34,BG,Bulgaria,42.03372000,24.29995000,Q407570
148902,Al Khamrah,2850,02,Makkah,194,SA,Saudi Arabia,22.43330000,39.46670000,Q4704211
38508,Zumaia,1191,PV,Basque Country,207,ES,Spain,43.29469000,-2.25341000,Q229659
57433,Youghal,1080,M,Munster,105,IE,Ireland,51.95000000,-7.85056000,Q1012476
94604,Hănțești,4720,SV,Suceava County,181,RO,Romania,47.75507000,26.37366000,Q2719685
11721,Erval Seco,2001,RS,Rio Grande do Sul,31,BR,Brazil,-27.49433000,-53.52792000,Q174286
105715,Amphoe Pathum Ratchawongsa,3523,37,Amnat Charoen,219,TH,Thailand,15.89542000,104.89611000,Q476355
2435,Kirchdorf in Tirol,2064,7,Tyrol,15,AT,Austria,47.55626000,12.44511000,Q665558
132859,Mairwa,4037,BR,Bihar,101,IN,India,26.23218000,84.16349000,Q2563828
83944,Panabuan,1316,14,Autonomous Region in Muslim Mindanao,174,PH,Philippines,5.96160000,120.96270000,Q31461027
85107,Tigbinan,1337,ALB,Albay,174,PH,Philippines,14.18648000,122.46923000,Q31555687
81255,Anakan,1363,BEN,Benguet,174,PH,Philippines,8.84778000,125.15139000,Q31465944
77975,Gemeente Vlaardingen,2614,ZH,South Holland,156,NL,Netherlands,51.91754000,4.32570000,Q210007
13566,Pai Pedro,1998,MG,Minas Gerais,31,BR,Brazil,-15.32734000,-43.19505000,Q1755581
109618,Gorodskoy okrug Yalta,4689,43,Autonomous Republic of Crimea,230,UA,Ukraine,44.49638000,34.16336000,Q2629652
9087,Tournai,1380,WAL,Wallonia,22,BE,Belgium,50.60715000,3.38932000,Q51462855
68658,Buen Retiro (El Retiro),3449,SIN,Sinaloa,142,MX,Mexico,25.46194000,-108.47833000,Q20274912
68457,Ayahualulco,3459,GRO,Guerrero,142,MX,Mexico,17.50066000,-99.18264000,Q3893112
147713,Bilashi,4008,MH,Maharashtra,101,IN,India,16.98333000,74.03333000,Q4907558
61384,Torremaggiore,1688,75,Apulia,107,IT,Italy,41.68894000,15.29408000,Q18493670
10032,Sud Carangas Province,3376,O,Oruro Department,27,BO,Bolivia,-18.50000000,-68.25000000,Q1360805
115311,Dexter,1423,NM,New Mexico,233,US,United States,33.19733000,-104.37302000,Q116445
111689,Avocado Heights,1416,CA,California,233,US,United States,34.03612000,-117.99118000,Q791245
71876,Loza de Barrera,3469,GUA,Guanajuato,142,MX,Mexico,20.98461000,-101.52972000,Q20208663
42343,Haute-Loire,4798,ARA,Auvergne-Rhône-Alpes,75,FR,France,45.11001000,3.83940000,Q12572
9888,Montero,3377,S,Santa Cruz Department,27,BO,Bolivia,-17.33866000,-63.25050000,Q990706
27373,Mehltheuer,3021,SN,Saxony,82,DE,Germany,50.54530000,12.03700000,Q599484
74869,Santiago,3456,AGU,Aguascalientes,142,MX,Mexico,22.11948000,-102.33769000,Q3241435
83074,Lianga,1314,13,Caraga,174,PH,Philippines,8.63361000,126.09472000,Q155590
27194,Löhnberg,3018,HE,Hesse,82,DE,Germany,50.51299000,8.27202000,Q599984
36257,Polanco,1170,S,Cantabria,207,ES,Spain,43.38524000,-4.01642000,Q1642159
26619,Kirchheim,3009,BY,Bavaria,82,DE,Germany,48.17490000,10.47461000,Q548525
67607,Kati,250,2,Koulikoro Region,134,ML,Mali,12.74409000,-8.07257000,Q771251
109956,Lypova Dolyna,4685,59,Sumy Oblast,230,UA,Ukraine,50.56428000,33.79793000,Q2011658
61457,Tre Fontane,1709,82,Sicily,107,IT,Italy,37.56989000,12.72423000,Q18473008
126308,Shenorock,1452,NY,New York,233,US,United States,41.33176000,-73.73819000,Q3460284
62334,Barbican,3751,02,Saint Andrew,108,JM,Jamaica,18.03549000,-76.76987000,Q1880599
73832,San José de las Flores,3448,OAX,Oaxaca,142,MX,Mexico,17.35076000,-95.39837000,Q20141628
48862,Carmarthen,2338,WLS,Wales,232,GB,United Kingdom,51.85552000,-4.30535000,Q835835
2471,Kohlschwarz,2059,6,Styria,15,AT,Austria,47.11667000,15.11667000,Q427263
78391,Middelsluis,2614,ZH,South Holland,156,NL,Netherlands,51.74250000,4.44167000,Q6841164
107189,Arpaçay,2208,36,Kars,225,TR,Turkey,40.84522000,43.32747000,Q691764
125605,Saint Augustine Beach,1436,FL,Florida,233,US,United States,29.85053000,-81.26535000,Q1862368
54511,Grad Donji Miholjac,740,14,Osijek-Baranja County,55,HR,Croatia,45.75000000,18.16667000,Q319276
139866,Mariana Mantovana,1705,25,Lombardy,107,IT,Italy,45.19288000,10.48688000,Q18491015
47754,Villemomble,4796,IDF,Île-de-France,75,FR,France,48.88333000,2.50000000,Q244716
30257,Wiesenbach,3006,BW,Baden-Württemberg,82,DE,Germany,49.36139000,8.80361000,Q622451
103977,Vålberg,1535,S,Värmland County,213,SE,Sweden,59.39145000,13.18633000,Q500217
82335,Daguioman,1335,15,Cordillera Administrative Region,174,PH,Philippines,17.45093000,120.91505000,Q28044
20348,Yangzhong,2248,FJ,Fujian,45,CN,China,26.70556000,119.37444000,Q72907
130183,Cao Bằng,3782,04,Cao Bằng,240,VN,Vietnam,22.66568000,106.25786000,Q1034096
40835,Chauconin-Neufmontiers,4796,IDF,Île-de-France,75,FR,France,48.96667000,2.85000000,Q271227
53988,El Sauce,4042,CM,Comayagua Department,97,HN,Honduras,14.52850000,-87.66571000,Q1643252
148348,Santa Bárbara,2827,BI,Biobío,44,CL,Chile,-37.66666667,-72.01666667,Q187961
9599,Obshtina Stara Zagora,4707,24,Stara Zagora Province,34,BG,Bulgaria,42.41667000,25.63333000,Q534046
58904,Porcellengo,1753,34,Veneto,107,IT,Italy,45.70613000,12.14225000,Q17651457
105512,Amphoe Mae Sariang,3505,58,Mae Hong Son,219,TH,Thailand,18.26474000,97.77057000,Q475960
71038,Jesús del Monte,3469,GUA,Guanajuato,142,MX,Mexico,20.91504000,-101.74129000,Q20149010
34354,Fuentesecas,1200,LE,Léon,207,ES,Spain,41.63077000,-5.47252000,Q953786
30449,Wörth an der Donau,3009,BY,Bavaria,82,DE,Germany,49.00093000,12.40539000,Q488592
32058,Albuixech,1175,VC,Valencia,207,ES,Spain,39.55000000,-0.31667000,Q1771153
94738,Jimbolia,4748,TM,Timiș County,181,RO,Romania,45.79139000,20.71722000,Q16898597
90537,Băniţa,4721,HD,Hunedoara County,181,RO,Romania,45.45000000,23.26667000,Q12081936
20280,Xichang,2277,SC,Sichuan,45,CN,China,27.89642000,102.26341000,Q224603
84801,Simbahan,1316,14,Autonomous Region in Muslim Mindanao,174,PH,Philippines,6.30320000,120.58360000,Q156195
107881,Kandıra,2195,41,Kocaeli,225,TR,Turkey,41.07000000,30.15262000,Q1074968
106424,Bang Kapi,3554,10,Bangkok,219,TH,Thailand,13.77258000,100.63847000,Q806445
52787,Kritsá,2109,M,Crete Region,85,GR,Greece,35.15821000,25.64459000,Q1384932
31712,Särevere,3566,51,Järva County,69,EE,Estonia,58.79000000,25.42806000,Q3468713
99185,Konokovo,1891,KDA,Krasnodar Krai,182,RU,Russia,44.86160000,41.32660000,Q4231056
15744,Kanye,3063,SO,Southern District,29,BW,Botswana,-24.96675000,25.33273000,Q170730
97478,Abakan,1877,KK,Republic of Khakassia,182,RU,Russia,53.71556000,91.42917000,Q875
34366,Fustiñana,1204,NC,Navarra,207,ES,Spain,42.02087000,-1.48526000,Q1773016
91347,Comuna Ciocăneşti,4720,SV,Suceava County,181,RO,Romania,47.50083000,25.24673000,Q16427470
54606,Ivanovec,726,20,Međimurje County,55,HR,Croatia,46.36833000,16.47667000,Q908872
54624,Josipovac,740,14,Osijek-Baranja County,55,HR,Croatia,45.58278000,18.58139000,Q3044301
2352,Ilz,2059,6,Styria,15,AT,Austria,47.08649000,15.92676000,Q663981
65252,Wŏnsan,3999,07,Kangwon Province,115,KP,North Korea,39.15278000,127.44361000,Q109374
147653,Sarbhon,4030,GJ,Gujarat,101,IN,India,21.05000000,73.08330000,Q7423512
58083,Borkhera,4014,RJ,Rajasthan,101,IN,India,25.52115000,75.64028000,Q4945504
15822,Baran’,2960,VI,Vitebsk Region,21,BY,Belarus,54.47840000,30.31590000,Q286964
120624,Little River County,1444,AR,Arkansas,233,US,United States,33.70054000,-94.23434000,Q61526
132953,Mayang Imphal,4010,MN,Manipur,101,IN,India,24.60998000,93.88873000,Q2564021
103341,Höviksnäs,1547,O,Västra Götaland County,213,SE,Sweden,58.03333000,11.76667000,Q2559865
70731,Huandacareo,3474,MIC,Michoacán,142,MX,Mexico,19.99136000,-101.27610000,Q15917404
13540,Ouro Branco,1998,MG,Minas Gerais,31,BR,Brazil,-20.52994000,-43.69422000,Q22062326
27799,Neustadt am Rübenberge,3008,NI,Lower Saxony,82,DE,Germany,52.50462000,9.45871000,Q33466238
36757,Salduero,1200,LE,Léon,207,ES,Spain,41.88946000,-2.79670000,Q832188
96949,Vârşolţ,4741,SJ,Sălaj County,181,RO,Romania,47.20000000,22.93333000,Q1081416
70526,General Bravo,3452,NLE,Nuevo León,142,MX,Mexico,25.79239000,-99.18147000,Q20234147
142514,El Verde,4857,JAL,Jalisco,142,MX,Mexico,20.55567000,-103.27901000,Q20244136
83104,Ligao,1337,ALB,Albay,174,PH,Philippines,13.21697000,123.51924000,Q1701
35283,Marchal,1193,AN,Andalusia,207,ES,Spain,37.29639000,-3.20353000,Q581216
107160,Anamur,2156,33,Mersin,225,TR,Turkey,36.07508000,32.83691000,Q170532
34730,Ibrillos,1200,LE,Léon,207,ES,Spain,42.45431000,-3.08238000,Q1643736
99904,Mikhaylovskiy Rayon,1858,AMU,Amur Oblast,182,RU,Russia,49.75000000,128.75000000,Q1763294
115853,Edgewater,1425,IL,Illinois,233,US,United States,41.98337000,-87.66395000,Q3047557
99787,Manzherok,1876,AL,Altai Republic,182,RU,Russia,51.83028000,85.77500000,Q4280389
120395,Lesage,1429,WV,West Virginia,233,US,United States,38.50647000,-82.29848000,Q4406469
110528,Stara Vyzhivka,4690,07,Volyn Oblast,230,UA,Ukraine,51.43762000,24.43997000,Q2445553
124959,Red River County,1407,TX,Texas,233,US,United States,33.62068000,-95.05036000,Q484570
22557,Kravaře,4600,80,Moravskoslezský kraj,58,CZ,Czech Republic,49.93203000,18.00472000,Q303478
92832,Comuna Rãzboieni,4731,NT,Neamț County,181,RO,Romania,47.07424000,26.56150000,Q3878768
106410,Ban Pong,3499,70,Ratchaburi,219,TH,Thailand,13.81629000,99.87739000,Q340034
120297,Lebanon South,1422,PA,Pennsylvania,233,US,United States,40.32804000,-76.40644000,Q1183890
119665,Kittitas County,1462,WA,Washington,233,US,United States,47.12417000,-120.67972000,Q111540
135893,Bassano del Grappa,1753,34,Veneto,107,IT,Italy,45.76656000,11.72739000,Q3635788
103326,Hässleholms Kommun,1541,M,Skåne County,213,SE,Sweden,56.20687000,13.72374000,Q508125
32651,Barca,1200,LE,Léon,207,ES,Spain,41.45490000,-2.62217000,Q578162
44873,Pavie,4799,OCC,Occitanie,75,FR,France,43.60969000,0.59143000,Q380501
142887,Santa Rita,4857,JAL,Jalisco,142,MX,Mexico,20.44150000,-102.39016000,Q2991008
89137,Cucujães,2235,01,Aveiro,177,PT,Portugal,40.87413000,-8.50687000,Q1954238
91459,Comuna Costineşti,4737,CT,Constanța County,181,RO,Romania,43.94780000,28.63284000,Q12113675
114920,Cumberland Head,1452,NY,New York,233,US,United States,44.71643000,-73.40263000,Q3461218
96187,Răchitova,4721,HD,Hunedoara County,181,RO,Romania,45.60000000,22.75000000,Q1939006
65552,Yeongdo-gu,3860,26,Busan,116,KR,South Korea,35.07849000,129.06483000,Q50423
35666,Munilla,1171,RI,La Rioja,207,ES,Spain,42.18900000,-2.29506000,Q23994352
128532,Washakie County,1442,WY,Wyoming,233,US,United States,43.90500000,-107.68286000,Q112846
6987,Redwood Park,3904,SA,South Australia,14,AU,Australia,-34.81155000,138.70695000,Q14935761
16783,Oshawa,866,ON,Ontario,39,CA,Canada,43.90012000,-78.84957000,Q211867
5000,Dolls Point,3909,NSW,New South Wales,14,AU,Australia,-33.99341000,151.14474000,Q5289307
133834,Secunderabad,4012,TG,Telangana,101,IN,India,17.50427000,78.54263000,Q1003502
36063,Pardilla,1200,LE,Léon,207,ES,Spain,41.55183000,-3.71089000,Q963998
129366,Windber,1422,PA,Pennsylvania,233,US,United States,40.23980000,-78.83502000,Q1182776
14883,São Francisco de Assis,2001,RS,Rio Grande do Sul,31,BR,Brazil,-29.55028000,-55.13111000,Q1750146
120908,Lyman,1430,MS,Mississippi,233,US,United States,30.49474000,-89.12561000,Q2710262
33151,Calp,1175,VC,Valencia,207,ES,Spain,38.64470000,0.04450000,Q671272
11551,Céu Azul,2022,PR,Paraná,31,BR,Brazil,-25.29831000,-53.74848000,Q1803993
111445,Arenac County,1426,MI,Michigan,233,US,United States,44.04289000,-83.74725000,Q491868
13760,Pedralva,1998,MG,Minas Gerais,31,BR,Brazil,-22.25067000,-45.45324000,Q612995
88498,Wielbark,1628,WN,Warmian-Masurian Voivodeship,176,PL,Poland,53.39858000,20.94629000,Q999482
11819,Figueirópolis d'Oeste,2011,MT,Mato Grosso,31,BR,Brazil,-15.48700000,-58.69723000,Q2013037
12969,Maracanã,2009,PA,Pará,31,BR,Brazil,-0.75819000,-47.48755000,Q2089279
83021,Lanot,1336,ANT,Antique,174,PH,Philippines,11.51917000,122.75722000,Q31811788
61568,Tula,1715,88,Sardinia,107,IT,Italy,40.73246000,8.98392000,Q222063
30685,Gørlev,1528,85,Region Zealand,59,DK,Denmark,55.53926000,11.22708000,Q12314806
113117,Butler County,1451,MO,Missouri,233,US,United States,36.71642000,-90.40656000,Q484457
135288,Adrara San Martino,1705,25,Lombardy,107,IT,Italy,45.70228000,9.94896000,Q2175750
20446,Zhijiang,2274,HB,Hubei,45,CN,China,30.42139000,111.75333000,Q197789
10263,Anicuns,2000,GO,Goiás,31,BR,Brazil,-16.38582000,-49.97942000,Q22067260
136946,Carvico,1705,25,Lombardy,107,IT,Italy,45.70193000,9.48580000,Q18452794
69370,Colonia Sesenta y Dos,3470,HID,Hidalgo,142,MX,Mexico,20.00528000,-99.34583000,Q20241629
122570,Nashua,1459,IA,Iowa,233,US,United States,42.95275000,-92.53630000,Q990640
120406,Leverett,1433,MA,Massachusetts,233,US,United States,42.45203000,-72.50148000,Q2437287
17918,Hinwil,1656,ZH,Zürich,214,CH,Switzerland,47.29426000,8.84393000,Q69383
148133,Calubian,1322,08,Eastern Visayas,174,PH,Philippines,11.45000000,124.41666667,Q212951
108112,Kızılağaç,2169,07,Antalya,225,TR,Turkey,36.73055000,31.53517000,Q208005
58958,Posta,1678,62,Lazio,107,IT,Italy,42.52562000,13.09723000,Q18496076
129249,Wilkinsburg,1422,PA,Pennsylvania,233,US,United States,40.44174000,-79.88199000,Q1184857
108027,Kovancılar,2159,23,Elazığ,225,TR,Turkey,38.71882000,39.86268000,Q6432728
47978,Wingersheim,4820,GES,Grand-Est,75,FR,France,48.72149000,7.63464000,Q21349
28565,Reinsfeld,3019,RP,Rhineland-Palatinate,82,DE,Germany,49.68333000,6.88333000,Q553049
127391,Tallahassee,1436,FL,Florida,233,US,United States,30.43826000,-84.28073000,Q37043
117519,Grant County,1408,NE,Nebraska,233,US,United States,41.91499000,-101.74052000,Q339175
73223,Saltillo,3476,PUE,Puebla,142,MX,Mexico,19.29644000,-97.29661000,Q20132169
7166,Seaford Rise,3904,SA,South Australia,14,AU,Australia,-35.19296000,138.48172000,Q7440368
56482,Kabupaten Lamandau,1794,KT,Kalimantan Tengah,102,ID,Indonesia,-1.83828000,111.28690000,Q14194
83249,Lusong,1355,01,Ilocos Region,174,PH,Philippines,16.86700000,120.44200000,Q31812016
85858,Bieliny,1630,SK,Świętokrzyskie Voivodeship,176,PL,Poland,50.84947000,20.94149000,Q553647
44407,Moussan,4799,OCC,Occitanie,75,FR,France,43.23091000,2.95000000,Q1457775
29776,Unterreit,3009,BY,Bavaria,82,DE,Germany,48.11667000,12.33333000,Q627477
25697,Großpostwitz,3021,SN,Saxony,82,DE,Germany,51.12083000,14.44065000,Q33441285
136247,Boscoreale,1669,72,Campania,107,IT,Italy,40.77274000,14.48118000,Q18502900
78485,Oegstgeest,2614,ZH,South Holland,156,NL,Netherlands,52.18000000,4.46944000,Q2694139
126370,Shorewood,1425,IL,Illinois,233,US,United States,41.52003000,-88.20173000,Q2308441
134865,Shahrestān-e Farahān,3916,00,Markazi Province,103,IR,Iran,34.60000000,49.63333000,Q1277889
28212,Palling,3009,BY,Bavaria,82,DE,Germany,48.00204000,12.63702000,Q262325
7599,Ulverstone,3908,TAS,Tasmania,14,AU,Australia,-41.16026000,146.18242000,Q2169513
79903,Waimate North,4059,NTL,Northland Region,158,NZ,New Zealand,-35.31667000,173.88333000,Q1542322
49835,Hastings,2336,ENG,England,232,GB,United Kingdom,50.85519000,0.57292000,Q29245
25416,Gelsenkirchen,3017,NW,North Rhine-Westphalia,82,DE,Germany,51.50508000,7.09654000,Q2765
10115,Albertina,1998,MG,Minas Gerais,31,BR,Brazil,-22.19908000,-46.62076000,Q986243
49266,Dennyloanhead,2335,SCT,Scotland,232,GB,United Kingdom,55.99886000,-3.91306000,Q3778259
4710,City of Cockburn,3906,WA,Western Australia,14,AU,Australia,-32.10264000,115.84431000,Q1105257
7976,Wyoming,3909,NSW,New South Wales,14,AU,Australia,-33.40387000,151.36254000,Q916063
42652,La Bouëxière,4807,BRE,Bretagne,75,FR,France,48.18333000,-1.43333000,Q1063192
29929,Waischenfeld,3009,BY,Bavaria,82,DE,Germany,49.84645000,11.34810000,Q503128
37000,Sant Vicenç de Castellet,1203,CT,Catalonia,207,ES,Spain,41.66667000,1.86667000,Q2442135
104909,San Martín,4137,CU,Cuscatlán Department,66,SV,El Salvador,13.78333000,-88.91667000,Q31943460
76816,Bugana,298,KO,Kogi,161,NG,Nigeria,7.99917000,7.58361000,Q320704
2707,Mittelberg,2063,8,Vorarlberg,15,AT,Austria,47.35127000,10.17197000,Q662549
98223,Chupa,1841,KR,Republic of Karelia,182,RU,Russia,66.27001000,33.05486000,Q2017040
92683,Comuna Proviţa de Sus,4729,PH,Prahova County,181,RO,Romania,45.13604000,25.63454000,Q2605273
68298,Apatauyan,3476,PUE,Puebla,142,MX,Mexico,19.79911000,-97.44440000,Q20251947
105246,Amphoe Bang Yai,3495,12,Nonthaburi,219,TH,Thailand,13.85385000,100.37318000,Q475263
58567,Piazza Caduti,1705,25,Lombardy,107,IT,Italy,45.70513000,9.50251000,Q18468649
124701,Progreso,1407,TX,Texas,233,US,United States,26.09230000,-97.95722000,Q601321
87047,Milanówek,1637,MZ,Masovian Voivodeship,176,PL,Poland,52.11879000,20.67155000,Q422283
121270,Markham,1425,IL,Illinois,233,US,United States,41.59365000,-87.69477000,Q579017
116901,Freedom,1404,NH,New Hampshire,233,US,United States,43.81230000,-71.03562000,Q2276146
138386,Este,1753,34,Veneto,107,IT,Italy,45.22338000,11.66379000,Q18490379
111174,Aliquippa,1422,PA,Pennsylvania,233,US,United States,40.63673000,-80.24006000,Q599716
41961,Fresse-sur-Moselle,4820,GES,Grand-Est,75,FR,France,47.87589000,6.78589000,Q920853
2170,Gschnitz,2064,7,Tyrol,15,AT,Austria,47.04469000,11.35089000,Q668663
109750,Kirovo,4689,43,Autonomous Republic of Crimea,230,UA,Ukraine,45.22106000,35.84227000,Q4221563
92621,Comuna Poian,4754,CV,Covasna County,181,RO,Romania,46.07731000,26.17423000,Q16426331
130233,Huyện Bắc Bình,3787,40,Bình Thuận,240,VN,Vietnam,11.27571000,108.38506000,Q3710674
24800,Dörpen,3008,NI,Lower Saxony,82,DE,Germany,52.96469000,7.32273000,Q631146
129361,Winchester,1458,NV,Nevada,233,US,United States,36.12997000,-115.11889000,Q774784
101065,Sadovoye,1883,KL,Republic of Kalmykia,182,RU,Russia,47.77720000,44.52080000,Q4404723
25965,Haßmersheim,3006,BW,Baden-Württemberg,82,DE,Germany,49.30000000,9.15000000,Q537756
53588,Municipio de San Pedro Jocopilas,3657,QC,Quiché Department,90,GT,Guatemala,15.15472000,-91.15610000,Q2403612
76826,Damaturu,297,YO,Yobe,161,NG,Nigeria,11.74697000,11.96083000,Q1023722
10853,Cabo Frio,1997,RJ,Rio de Janeiro,31,BR,Brazil,-22.88717000,-42.02622000,Q735025
116506,Fifth Street,1407,TX,Texas,233,US,United States,29.59829000,-95.55133000,Q982289
116425,Farmland,1440,IN,Indiana,233,US,United States,40.18782000,-85.12747000,Q2685404
34333,Fuenterroble de Salvatierra,1200,LE,Léon,207,ES,Spain,40.56466000,-5.73379000,Q1650181
79520,Skreia,1009,05,Oppland,165,NO,Norway,60.65257000,10.93564000,Q1769694
35424,Miguelturra,1205,CM,Castilla La Mancha,207,ES,Spain,38.96442000,-3.89047000,Q1632172
88514,Wieprz,1635,MA,Lesser Poland Voivodeship,176,PL,Poland,49.89093000,19.35688000,Q2633393
50437,Lund,2336,ENG,England,232,GB,United Kingdom,53.91920000,-0.52211000,Q2599743
72983,Pugchén Mumuntic,3451,CHP,Chiapas,142,MX,Mexico,16.86389000,-92.82361000,Q20297931
47243,Thoiry,4798,ARA,Auvergne-Rhône-Alpes,75,FR,France,46.23762000,5.98111000,Q1388744
32961,Borrenes,1200,LE,Léon,207,ES,Spain,42.49019000,-6.72338000,Q1628592
20810,El Guamo,2893,BOL,Bolívar,48,CO,Colombia,10.01753000,-74.93483000,Q1576366
132431,Kavalur,4026,KA,Karnataka,101,IN,India,15.28829000,75.94330000,Q6379072
134669,Khalkhāl,3934,24,Ardabil Province,103,IR,Iran,37.61837000,48.52928000,Q180078
19982,Pingshan,2279,GD,Guangdong,45,CN,China,22.99376000,114.71311000,Q533985
118432,Hill 'n Dale,1436,FL,Florida,233,US,United States,28.51972000,-82.29926000,Q2570687
45758,Saint-André-de-Sangonis,4799,OCC,Occitanie,75,FR,France,43.64753000,3.50209000,Q474011
25063,Erndtebrück,3017,NW,North Rhine-Westphalia,82,DE,Germany,50.98927000,8.25288000,Q10956
46655,Saint-Étienne-du-Rouvray,4804,NOR,Normandie,75,FR,France,49.37794000,1.10467000,Q1058186
144308,Takub,1272,BOH,Bohol,174,PH,Philippines,6.85638889,125.42250000,Q31543004
113455,Carroll County,1430,MS,Mississippi,233,US,United States,33.44853000,-89.92020000,Q112499
11434,Corrente,2008,PI,Piauí,31,BR,Brazil,-10.47219000,-45.04691000,Q2662106
106300,Amphoe Thap Put,3549,82,Phangnga,219,TH,Thailand,8.53768000,98.63208000,Q476891
13331,Niterói,1997,RJ,Rio de Janeiro,31,BR,Brazil,-22.91715000,-43.08391000,Q178725
21968,Sancti Spíritus,274,07,Sancti Spíritus Province,56,CU,Cuba,21.92972000,-79.44250000,Q2234391
78715,Sluiskil,2620,ZE,Zeeland,156,NL,Netherlands,51.27833000,3.83611000,Q2627134
97529,Akhtanizovskaya,1891,KDA,Krasnodar Krai,182,RU,Russia,45.32128000,37.10071000,Q31871645
94476,Gâdinţi,4731,NT,Neamț County,181,RO,Romania,46.93333000,27.01667000,Q12729766
31772,Al Khārijah,3246,WAD,New Valley,65,EG,Egypt,25.45141000,30.54635000,Q4063326
100592,Pelym,1894,SVE,Sverdlovsk,182,RU,Russia,61.01083000,61.99778000,Q2236508
1181,La Clotilde,3640,H,Chaco,11,AR,Argentina,-27.13333000,-60.66667000,Q1656083
133136,Nambutalai,4035,TN,Tamil Nadu,101,IN,India,9.72766000,79.00707000,Q943727
113115,Butler County,1406,KS,Kansas,233,US,United States,37.78127000,-96.83907000,Q376505
58675,Pinerolo,1702,21,Piedmont,107,IT,Italy,44.88534000,7.33135000,Q18444107
47216,Thairé,4795,NAQ,Nouvelle-Aquitaine,75,FR,France,46.07341000,-1.00230000,Q925523
113637,Center,1408,NE,Nebraska,233,US,United States,42.60945000,-97.87673000,Q2613155
137657,Chiauci,1695,67,Molise,107,IT,Italy,41.67791000,14.38393000,Q18484848
73652,San Ignacio Nopala,3470,HID,Hidalgo,142,MX,Mexico,19.83528000,-99.34556000,Q20243919
95644,Seini,4760,MM,Maramureș County,181,RO,Romania,47.75000000,23.28333000,Q666373
8476,Char Bhadrāsan,771,13,Dhaka District,19,BD,Bangladesh,23.30916000,90.22698000,Q46043
62403,Bunkers Hill,3755,07,Trelawny Parish,108,JM,Jamaica,18.36198000,-77.68612000,Q1001895
73655,San Ignacio de Rivera (Ojo de Agua),3469,GUA,Guanajuato,142,MX,Mexico,20.55926000,-101.46127000,Q20289811
6952,Raceview,3905,QLD,Queensland,14,AU,Australia,-27.63472000,152.77519000,Q7279037
11041,Canelinha,2014,SC,Santa Catarina,31,BR,Brazil,-27.24874000,-48.78781000,Q995318
95487,Oraş Bãlceşti,4757,VL,Vâlcea County,181,RO,Romania,44.62941000,23.94052000,Q276127
115969,Elim,1422,PA,Pennsylvania,233,US,United States,40.29785000,-78.94253000,Q1134194
114228,Cleary,1430,MS,Mississippi,233,US,United States,32.16543000,-90.18064000,Q175799
95422,Olanu,4757,VL,Vâlcea County,181,RO,Romania,44.86667000,24.30000000,Q431328
61085,Strada in Chianti,1664,52,Tuscany,107,IT,Italy,43.65874000,11.29678000,Q3974648
80416,Playa Leona,1394,10,Panamá Oeste Province,170,PA,Panama,8.78389000,-79.77547000,Q654169
17062,Springbrook,872,AB,Alberta,39,CA,Canada,52.17920000,-113.87981000,Q1744192
75019,Santo Domingo de las Palmas,3451,CHP,Chiapas,142,MX,Mexico,16.13667000,-91.32194000,Q20283984
28085,Offenau,3006,BW,Baden-Württemberg,82,DE,Germany,49.24583000,9.16056000,Q503878
128051,Upper Saint Clair,1422,PA,Pennsylvania,233,US,United States,40.33590000,-80.08339000,Q1087220
3026,Politischer Bezirk Linz-Land,2058,4,Upper Austria,15,AT,Austria,48.16667000,14.30000000,Q265632
76008,Villa Hermosa (Las Pozas),3459,GRO,Guerrero,142,MX,Mexico,17.63361000,-101.46639000,Q20210310
129239,Wildwood,1454,TN,Tennessee,233,US,United States,35.80370000,-83.87129000,Q6167416
64834,Maua,198,26,Meru,113,KE,Kenya,0.23320000,37.94086000,Q690356
43025,Langogne,4799,OCC,Occitanie,75,FR,France,44.72726000,3.85539000,Q199549
115928,El Monte,1416,CA,California,233,US,United States,34.06862000,-118.02757000,Q595550
138094,Costa Valle Imagna,1705,25,Lombardy,107,IT,Italy,45.80280000,9.50413000,Q3695302
57192,Cork,1080,M,Munster,105,IE,Ireland,51.89797000,-8.47061000,Q36647
83603,Masinloc,1345,03,Central Luzon,174,PH,Philippines,15.53630000,119.95020000,Q56572
145932,Hacienda,1324,ABR,Abra,174,PH,Philippines,15.93611111,120.17861111,Q31811399
109283,Songea,1486,21,Ruvuma,218,TZ,Tanzania,-10.68333000,35.65000000,Q794813
21851,Esmeralda,286,09,Camagüey Province,56,CU,Cuba,21.85139000,-78.11725000,Q23797650
141750,The Plains,4851,OH,Ohio,233,US,United States,39.36896000,-82.13237000,Q3522565
14085,Presidente Juscelino,1998,MG,Minas Gerais,31,BR,Brazil,-18.73883000,-44.07767000,Q948550
20985,La Gloria,2899,CES,Cesar,48,CO,Colombia,8.61160000,-73.63045000,Q1526106
75131,Soyata,3464,VER,Veracruz,142,MX,Mexico,18.36889000,-95.28222000,Q20273075
8985,Pecq,1380,WAL,Wallonia,22,BE,Belgium,50.68619000,3.33789000,Q21764309
128540,Washington,1451,MO,Missouri,233,US,United States,38.55811000,-91.01209000,Q761885
98878,Kargat,1888,NVS,Novosibirsk,182,RU,Russia,55.19556000,80.28111000,Q145187
24952,Ellgau,3009,BY,Bavaria,82,DE,Germany,48.60000000,10.86667000,Q23017
43013,Landudec,4807,BRE,Bretagne,75,FR,France,47.99983000,-4.33641000,Q35711349
111359,Anoka County,1420,MN,Minnesota,233,US,United States,45.27324000,-93.24645000,Q110495
46175,Saint-Laurent-de-Brévedent,4804,NOR,Normandie,75,FR,France,49.52564000,0.25458000,Q839446
73437,San Bernardino de Milpillas Chico,3453,DUR,Durango,142,MX,Mexico,23.38463000,-105.15314000,Q20232596
131560,Chincholi,4026,KA,Karnataka,101,IN,India,17.46508000,77.41874000,Q1105849
25026,Eppstein,3018,HE,Hesse,82,DE,Germany,50.14277000,8.39231000,Q45347
14102,Primavera de Rondônia,2013,RO,Rondônia,31,BR,Brazil,-11.92939000,-61.30611000,Q2099821
77878,Gemeente Montfoort,2610,UT,Utrecht,156,NL,Netherlands,52.04767000,4.94844000,Q10048
51540,Symington,2335,SCT,Scotland,232,GB,United Kingdom,55.55176000,-4.55835000,Q12070430
122793,New Windsor,1401,MD,Maryland,233,US,United States,39.54205000,-77.10804000,Q756365
54800,Pazin,743,18,Istria County,55,HR,Croatia,45.24028000,13.93667000,Q211968
49660,Glenrothes,2335,SCT,Scotland,232,GB,United Kingdom,56.19514000,-3.17316000,Q943351
74259,San Nicolás Peralta,3465,MOR,Morelos,142,MX,Mexico,19.35954000,-99.48555000,Q20147741
107035,Testour,2572,31,Kassrine,224,TN,Tunisia,36.55130000,9.44307000,Q1250999
97159,Barice,3733,VO,Vojvodina,196,RS,Serbia,45.18189000,21.08279000,Q761366
28412,Pähl,3009,BY,Bavaria,82,DE,Germany,47.90000000,11.18333000,Q49288278
10405,Aroeiras,2005,PB,Paraíba,31,BR,Brazil,-7.52057000,-35.69927000,Q1808029
137103,Cassibile,1709,82,Sicily,107,IT,Italy,36.97862000,15.20061000,Q1012526
90456,Bârseşti,4758,VN,Vrancea County,181,RO,Romania,45.91667000,26.73333000,Q12724608
83661,Mercedes,1362,ZSI,Zamboanga Sibugay,174,PH,Philippines,6.95861000,122.14833000,Q31812402
50260,Lavenham,2336,ENG,England,232,GB,United Kingdom,52.10861000,0.79617000,Q1808895
5825,Kenmore Hills,3905,QLD,Queensland,14,AU,Australia,-27.50420000,152.93183000,Q6389472
127710,Tomball,1407,TX,Texas,233,US,United States,30.09716000,-95.61605000,Q684434
72978,Puerto de Chiquihuite,3455,QUE,Querétaro,142,MX,Mexico,20.70083000,-99.83528000,Q20246681
12954,Manoel Urbano,2012,AC,Acre,31,BR,Brazil,-8.83889000,-69.25972000,Q1772688
19333,Beipiao,2268,LN,Liaoning,45,CN,China,41.79194000,120.77917000,Q814826
18322,Prangins,1651,VD,Vaud,214,CH,Switzerland,46.39518000,6.24960000,Q22562712
51039,Ravenstone,2336,ENG,England,232,GB,United Kingdom,52.72111000,-1.40582000,Q7296549
32140,Aldaia,1175,VC,Valencia,207,ES,Spain,39.46569000,-0.46005000,Q1904673
71540,Lacandón,3451,CHP,Chiapas,142,MX,Mexico,17.02141000,-91.59523000,Q20216630
15855,Chervyen’,2957,MI,Minsk Region,21,BY,Belarus,53.70590000,28.43130000,Q201458
7189,Seymour,3903,VIC,Victoria,14,AU,Australia,-37.02655000,145.13924000,Q985689
42847,La Riche,4818,CVL,Centre-Val de Loire,75,FR,France,47.38996000,0.67072000,Q35709393
110193,Olesko,4672,46,Lviv Oblast,230,UA,Ukraine,49.96233000,24.89336000,Q2019437
127967,Uncasville,1435,CT,Connecticut,233,US,United States,41.43454000,-72.10980000,Q7882479
70115,El Porvenir,3448,OAX,Oaxaca,142,MX,Mexico,17.47446000,-95.25596000,Q20280373
86461,Inwałd,1635,MA,Lesser Poland Voivodeship,176,PL,Poland,49.86355000,19.39276000,Q2521425
17897,Hedingen,1656,ZH,Zürich,214,CH,Switzerland,47.29794000,8.44833000,Q65129
114255,Clifton,1454,TN,Tennessee,233,US,United States,35.38702000,-87.99531000,Q2240808
2864,Oberndorf bei Salzburg,2061,5,Salzburg,15,AT,Austria,47.95000000,12.93333000,Q255524
23198,Třebenice,4576,42,Ústecký kraj,58,CZ,Czech Republic,50.47632000,13.99005000,Q373951
25135,Falkenfels,3009,BY,Bavaria,82,DE,Germany,49.00415000,12.59480000,Q428511
36859,San Lorenzo de Tormes,1200,LE,Léon,207,ES,Spain,40.36984000,-5.48848000,Q1606412
100633,Peshkovo,1837,ROS,Rostov Oblast,182,RU,Russia,47.01867000,39.38845000,Q37959169
115791,Easton,1416,CA,California,233,US,United States,36.65023000,-119.79070000,Q3389296
111542,Ashland County,1441,WI,Wisconsin,233,US,United States,46.50974000,-90.71960000,Q494931
94698,Ivănești,4752,VS,Vaslui County,181,RO,Romania,46.63481000,27.46048000,Q2724536
9052,Sint-Lievens-Houtem,1373,VLG,Flanders,22,BE,Belgium,50.91970000,3.86225000,Q21764821
50581,Milford,2336,ENG,England,232,GB,United Kingdom,51.17272000,-0.65042000,Q1016878
80371,Nueva Arenosa,1394,10,Panamá Oeste Province,170,PA,Panama,8.86944000,-79.99472000,Q3544851
127675,Tipton,1459,IA,Iowa,233,US,United States,41.76974000,-91.12793000,Q1925245
70552,Gobernadores,3454,TAB,Tabasco,142,MX,Mexico,18.24694000,-93.18528000,Q20227962
67568,Čelopek,660,08,Brvenica Municipality,129,MK,Macedonia,41.93167000,21.01333000,Q20935802
95799,Piscu Sadovei,4742,DJ,Dolj County,181,RO,Romania,43.87729000,23.93687000,Q12146330
120107,Lanesborough,1433,MA,Massachusetts,233,US,United States,42.51731000,-73.22816000,Q2318445
48494,Biddenden,2336,ENG,England,232,GB,United Kingdom,51.11489000,0.63819000,Q663588
125215,Riverton,1414,UT,Utah,233,US,United States,40.52189000,-111.93910000,Q129965
28543,Reichenbach/Vogtland,3021,SN,Saxony,82,DE,Germany,50.62279000,12.30344000,Q32251794
7230,Smiths Lake,3909,NSW,New South Wales,14,AU,Australia,-32.38043000,152.50337000,Q7545578
46136,Saint-Julien,4812,PAC,Provence-Alpes-Côte-d’Azur,75,FR,France,43.31334000,5.44935000,Q765366
127247,Suncook,1404,NH,New Hampshire,233,US,United States,43.13064000,-71.45312000,Q3450375
53667,San Carlos Sija,3668,QZ,Quetzaltenango Department,90,GT,Guatemala,14.98436000,-91.54912000,Q2609256
132206,Jaithari,4039,MP,Madhya Pradesh,101,IN,India,23.20856000,78.61487000,Q547588
28443,Radeburg,3021,SN,Saxony,82,DE,Germany,51.21516000,13.72810000,Q8770
42159,Gouzeaucourt,4828,HDF,Hauts-de-France,75,FR,France,50.05606000,3.12351000,Q1003071
11613,Dois Córregos,2021,SP,São Paulo,31,BR,Brazil,-22.36611000,-48.38028000,Q685613
47338,Tourville-sur-Odon,4804,NOR,Normandie,75,FR,France,49.14154000,-0.50128000,Q818280
6533,Narrabundah,3907,ACT,Australian Capital Territory,14,AU,Australia,-35.33570000,149.14924000,Q6966155
42483,Illzach,4820,GES,Grand-Est,75,FR,France,47.77420000,7.35175000,Q274610
55143,Plaine du Nord,4117,ND,Nord,95,HT,Haiti,19.67707000,-72.26969000,Q2430177
12538,Jaguarari,2002,BA,Bahia,31,BR,Brazil,-10.26389000,-40.19583000,Q1070926
121488,McCulloch County,1407,TX,Texas,233,US,United States,31.19887000,-99.34748000,Q112149
27542,Munningen,3009,BY,Bavaria,82,DE,Germany,48.91667000,10.60000000,Q559161
124405,Plymouth,1420,MN,Minnesota,233,US,United States,45.01052000,-93.45551000,Q936753
96161,Ruseni,4731,NT,Neamț County,181,RO,Romania,46.79841000,26.53943000,Q12149359
61472,Treggiaia,1664,52,Tuscany,107,IT,Italy,43.62305000,10.67325000,Q782473
135312,Agordo,1753,34,Veneto,107,IT,Italy,46.28201000,12.03608000,Q18497212
39230,Weno,2580,TRK,Chuuk State,143,FM,Micronesia,7.44648000,151.84135000,Q1009384
101473,Sol’tsy,1834,NGR,Novgorod Oblast,182,RU,Russia,58.12387000,30.32377000,Q196390
13410,Nova Olinda,2005,PB,Paraíba,31,BR,Brazil,-7.45231000,-38.01122000,Q1648345
148502,Colina,2824,RM,Región Metropolitana de Santiago,44,CL,Chile,-33.20000000,-70.68333333,Q3841
124222,Pine Grove,1416,CA,California,233,US,United States,38.41297000,-120.65882000,Q3476081
66160,George Charles Boulevard,3758,02,Castries Quarter,186,LC,Saint Lucia,14.00499000,-60.98673000,Q3556840
83177,Lopez,1356,MDC,Occidental Mindoro,174,PH,Philippines,13.88400000,122.26040000,Q103935
77623,Eckart,2623,NB,North Brabant,156,NL,Netherlands,51.47320000,5.49449000,Q2224902
148858,Rayyis,2851,03,Al Madinah,194,SA,Saudi Arabia,23.56670000,38.60000000,Q7299423
20479,Zigong,2277,SC,Sichuan,45,CN,China,29.34162000,104.77689000,Q29015
98613,Gunib,1850,DA,Republic of Dagestan,182,RU,Russia,42.38758000,46.96509000,Q1025918
53851,Apacilagua,4041,CH,Choluteca Department,97,HN,Honduras,13.45821000,-87.01122000,Q605984
105348,Amphoe Hot,3491,50,Chiang Mai,219,TH,Thailand,18.11581000,98.46377000,Q475523
48965,Chilcompton,2336,ENG,England,232,GB,United Kingdom,51.26391000,-2.50502000,Q2081109
76057,Villa Victoria,3474,MIC,Michoacán,142,MX,Mexico,18.75749000,-103.36967000,Q2652321
93274,Comuna Unirea,4724,AB,Alba,181,RO,Romania,46.41948000,23.76260000,Q16425375
27135,Lohne,3008,NI,Lower Saxony,82,DE,Germany,52.66625000,8.23750000,Q12449
30827,Odder,1531,82,Central Denmark Region,59,DK,Denmark,55.97313000,10.15300000,Q925736
81271,Anibongan,1340,11,Davao Region,174,PH,Philippines,7.39333000,125.71889000,Q31466743
86374,Grodziec,1634,WP,Greater Poland Voivodeship,176,PL,Poland,52.03855000,18.05972000,Q554007
